[
    {
        "County": "Adams",
        "Name": "Washington Township Trustee",
        "Address": "313 W Jefferson St, Decatur, IN 46733, United States",
        "Phone": "(260) 724-2518",
        "Website": "N/A",
        "Latitude": 40.8281674,
        "Longitude": -84.9254095,
        "Hours": [
            "Monday: Closed",
            "Tuesday: 8:30 AM - 4:00 PM",
            "Wednesday: 8:30 AM - 4:00 PM",
            "Thursday: 8:30 AM - 4:00 PM",
            "Friday: Closed",
            "Saturday: Closed",
            "Sunday: Closed"
        ]
    },
    {
        "County": "Allen",
        "Name": "Wayne Township Trustee",
        "Address": "320 E Superior St, Fort Wayne, IN 46802, United States",
        "Phone": "(260) 449-7000",
        "Website": "N/A",
        "Latitude": 41.0827557,
        "Longitude": -85.1361653,
        "Hours": [
            "Monday: 8:00 AM - 4:00 PM",
            "Tuesday: 8:00 AM - 4:00 PM",
            "Wednesday: 8:00 AM - 4:00 PM",
            "Thursday: 8:00 AM - 4:00 PM",
            "Friday: 8:00 AM - 12:00 PM",
            "Saturday: Closed",
            "Sunday: Closed"
        ]
    },
    {
        "County": "Allen",
        "Name": "Washington Twp Trustee",
        "Address": "1832 W Wallen Rd, Fort Wayne, IN 46818, United States",
        "Phone": "(260) 449-3354",
        "Website": "N/A",
        "Latitude": 41.1618191,
        "Longitude": -85.16763929999999,
        "Hours": [
            "Monday: 8:00 AM - 12:00 PM",
            "Tuesday: Closed",
            "Wednesday: 8:00 AM - 12:00 PM",
            "Thursday: 3:00 - 6:00 PM",
            "Friday: 8:00 AM - 12:00 PM",
            "Saturday: Closed",
            "Sunday: Closed"
        ]
    },
    {
        "County": "Allen",
        "Name": "Pleasant Township Trustee",
        "Address": "13427 Thiele Rd, Fort Wayne, IN 46819, United States",
        "Phone": "(260) 639-6251",
        "Website": "N/A",
        "Latitude": 40.9600802,
        "Longitude": -85.1389469
    },
    {
        "County": "Allen",
        "Name": "St Joseph Township Trustee",
        "Address": "6033 Maplecrest Rd, Fort Wayne, IN 46835, United States",
        "Phone": "(260) 485-5993",
        "Website": "N/A",
        "Latitude": 41.1360615,
        "Longitude": -85.0627793
    },
    {
        "County": "Allen",
        "Name": "Aboite Township Trustee",
        "Address": "11321 Aboite Center Rd, Fort Wayne, IN 46814, United States",
        "Phone": "(260) 432-0970",
        "Website": "N/A",
        "Latitude": 41.0446851,
        "Longitude": -85.2915038,
        "Hours": [
            "Monday: 9:00 AM - 2:00 PM",
            "Tuesday: 9:00 AM - 2:00 PM",
            "Wednesday: Closed",
            "Thursday: 9:00 AM - 2:00 PM",
            "Friday: Closed",
            "Saturday: Closed",
            "Sunday: Closed"
        ]
    },
    {
        "County": "Allen",
        "Name": "Washington township trustee,wallen rd",
        "Address": "E Wallen Rd, Fort Wayne, IN 46825, United States",
        "Phone": "N/A",
        "Website": "N/A",
        "Latitude": 41.1623713,
        "Longitude": -85.12173179999999
    },
    {
        "County": "Bartholomew",
        "Name": "Columbus Township Trustee - Ben Jackson, Trustee",
        "Address": "1333 Washington St, Columbus, IN 47201, United States",
        "Phone": "(812) 372-8249",
        "Website": "N/A",
        "Latitude": 39.211882,
        "Longitude": -85.9211024,
        "Hours": [
            "Monday: 8:30 AM - 12:00 PM, 1:00 - 4:00 PM",
            "Tuesday: 8:30 AM - 12:00 PM, 1:00 - 4:00 PM",
            "Wednesday: 8:30 AM - 12:00 PM, 1:00 - 4:00 PM",
            "Thursday: 8:30 AM - 12:00 PM, 1:00 - 4:00 PM",
            "Friday: 8:30 AM - 12:00 PM, 1:00 - 4:00 PM",
            "Saturday: Closed",
            "Sunday: Closed"
        ]
    },
    {
        "County": "Bartholomew",
        "Name": "Jackson Township Trustee",
        "Address": "11519 W 930 S, Columbus, IN 47201, United States",
        "Phone": "(812) 342-3212",
        "Website": "N/A",
        "Latitude": 39.06396,
        "Longitude": -86.0324445
    },
    {
        "County": "Bartholomew",
        "Name": "Ohio Township Trustee",
        "Address": "6764 W 550 S, Columbus, IN 47201, United States",
        "Phone": "(812) 342-0313",
        "Website": "N/A",
        "Latitude": 39.1188776,
        "Longitude": -85.9954403
    },
    {
        "County": "Bartholomew",
        "Name": "Harrison Twp Trustee",
        "Address": "8621 W Old Nashville Rd, Columbus, IN 47201, United States",
        "Phone": "(812) 343-0662",
        "Website": "N/A",
        "Latitude": 39.2011233,
        "Longitude": -86.0168927
    },
    {
        "County": "Blackford",
        "Name": "Washington Township Trustee",
        "Address": "5424 N 100 W, Hartford City, IN 47348, United States",
        "Phone": "(765) 348-8976",
        "Website": "N/A",
        "Latitude": 40.5292914,
        "Longitude": -85.3899115
    },
    {
        "County": "Blackford",
        "Name": "Licking Township Trustee",
        "Address": "118 N Jefferson St, Hartford City, IN 47348, United States",
        "Phone": "(765) 348-0920",
        "Website": "N/A",
        "Latitude": 40.4519391,
        "Longitude": -85.3671844,
        "Hours": [
            "Monday: 8:30 - 11:00 AM",
            "Tuesday: 8:30 - 11:00 AM",
            "Wednesday: Closed",
            "Thursday: 8:30 - 11:00 AM",
            "Friday: Closed",
            "Saturday: Closed",
            "Sunday: Closed"
        ]
    },
    {
        "County": "Blackford",
        "Name": "Harrison Township Trustee",
        "Address": "118 S Main St, Montpelier, IN 47359, United States",
        "Phone": "(765) 728-5881",
        "Website": "N/A",
        "Latitude": 40.5547643,
        "Longitude": -85.2776935
    },
    {
        "County": "Boone",
        "Name": "Center Township Trustee",
        "Address": "320 N East St, Lebanon, IN 46052, United States",
        "Phone": "(765) 482-1550",
        "Website": "N/A",
        "Latitude": 40.0499348,
        "Longitude": -86.46715069999999,
        "Hours": [
            "Monday: 8:30 AM - 4:00 PM",
            "Tuesday: 8:30 AM - 4:00 PM",
            "Wednesday: 8:30 AM - 4:00 PM",
            "Thursday: 8:30 AM - 4:00 PM",
            "Friday: 8:30 AM - 4:00 PM",
            "Saturday: Closed",
            "Sunday: Closed"
        ]
    },
    {
        "County": "Boone",
        "Name": "Worth Township Trustee",
        "Address": "2965 575 E, Whitestown, IN 46075, United States",
        "Phone": "(317) 769-3560",
        "Website": "N/A",
        "Latitude": 39.99725970000001,
        "Longitude": -86.360073
    },
    {
        "County": "Cass",
        "Name": "Eel Township Trustee",
        "Address": "409 High St Rd, Logansport, IN 46947, United States",
        "Phone": "(574) 753-3680",
        "Website": "N/A",
        "Latitude": 40.7561977,
        "Longitude": -86.3661316
    },
    {
        "County": "Cass",
        "Name": "Jackson Township Trustee",
        "Address": "8916 E Co Rd 900 S, Walton, IN 46994, United States",
        "Phone": "(574) 626-2915",
        "Website": "N/A",
        "Latitude": 40.63479720000001,
        "Longitude": -86.20496140000002
    },
    {
        "County": "Clark",
        "Name": "Jeffersonville Trustee\u2019s Office",
        "Address": "632 E Court Ave, Jeffersonville, IN 47130, United States",
        "Phone": "(812) 285-6240",
        "Website": "N/A",
        "Latitude": 38.2778014,
        "Longitude": -85.7346645,
        "Hours": [
            "Monday: 8:30 AM - 4:00 PM",
            "Tuesday: 8:30 AM - 4:00 PM",
            "Wednesday: 8:30 AM - 4:00 PM",
            "Thursday: 8:30 AM - 4:00 PM",
            "Friday: 8:30 AM - 4:00 PM",
            "Saturday: Closed",
            "Sunday: Closed"
        ]
    },
    {
        "County": "Clark",
        "Name": "Charlestown Twp Trustee",
        "Address": "322 Main Cross St, Charlestown, IN 47111, United States",
        "Phone": "(812) 256-2104",
        "Website": "N/A",
        "Latitude": 38.4439441,
        "Longitude": -85.661298,
        "Hours": [
            "Monday: 9:00 AM - 4:30 PM",
            "Tuesday: 9:00 AM - 4:30 PM",
            "Wednesday: 9:00 AM - 4:30 PM",
            "Thursday: 9:00 AM - 4:30 PM",
            "Friday: 9:00 AM - 4:30 PM",
            "Saturday: 9:30 AM - 12:00 PM",
            "Sunday: Closed"
        ]
    },
    {
        "County": "Clay",
        "Name": "Brazil Twp Office",
        "Address": "4 W National Ave, Brazil, IN 47834, United States",
        "Phone": "(812) 446-9511",
        "Website": "N/A",
        "Latitude": 39.522828,
        "Longitude": -87.1281053,
        "Hours": [
            "Monday: Closed",
            "Tuesday: 11:00 AM - 4:00 PM",
            "Wednesday: 11:00 AM - 4:00 PM",
            "Thursday: 11:00 AM - 4:00 PM",
            "Friday: Closed",
            "Saturday: Closed",
            "Sunday: Closed"
        ]
    },
    {
        "County": "Clinton",
        "Name": "Center Township of Clinton County",
        "Address": "250 Alhambra Ave, Frankfort, IN 46041, United States",
        "Phone": "(765) 357-9100",
        "Website": "N/A",
        "Latitude": 40.2728714,
        "Longitude": -86.51008639999999,
        "Hours": [
            "Monday: 9:00 AM - 3:00 PM",
            "Tuesday: 9:00 AM - 3:00 PM",
            "Wednesday: 9:00 AM - 3:00 PM",
            "Thursday: 9:00 AM - 3:00 PM",
            "Friday: 9:00 AM - 3:00 PM",
            "Saturday: Closed",
            "Sunday: Closed"
        ]
    },
    {
        "County": "Daviess",
        "Name": "Washington Township Trustee",
        "Address": "1100 State St, Washington, IN 47501, United States",
        "Phone": "(812) 254-3447",
        "Website": "N/A",
        "Latitude": 38.6565109,
        "Longitude": -87.16288190000002
    },
    {
        "County": "Decatur",
        "Name": "Washington Township Trustee, Decatur County, Indiana",
        "Address": "1030 N Lincoln St #1400, Greensburg, IN 47240, United States",
        "Phone": "(812) 663-5501",
        "Website": "N/A",
        "Latitude": 39.3473335,
        "Longitude": -85.4788117,
        "Hours": [
            "Monday: 9:00 AM - 12:00 PM",
            "Tuesday: 9:00 AM - 12:00 PM",
            "Wednesday: 9:00 AM - 12:00 PM",
            "Thursday: 9:00 AM - 12:00 PM",
            "Friday: 9:00 AM - 12:00 PM",
            "Saturday: Closed",
            "Sunday: Closed"
        ]
    },
    {
        "County": "Decatur",
        "Name": "Washington Township Trustee",
        "Address": "1502 N Lincoln St # 4, Greensburg, IN 47240, United States",
        "Phone": "(812) 663-5501",
        "Website": "N/A",
        "Latitude": 39.3515024,
        "Longitude": -85.4789377,
        "Hours": [
            "Monday: 9:00 AM - 12:00 PM",
            "Tuesday: 9:00 AM - 12:00 PM",
            "Wednesday: 9:00 AM - 12:00 PM",
            "Thursday: 9:00 AM - 12:00 PM",
            "Friday: 9:00 AM - 12:00 PM",
            "Saturday: Closed",
            "Sunday: Closed"
        ]
    },
    {
        "County": "DeKalb",
        "Name": "Union Township Trustees Office",
        "Address": "427 W Seventh St, Auburn, IN 46706, United States",
        "Phone": "(260) 925-3564",
        "Website": "N/A",
        "Latitude": 41.3666752,
        "Longitude": -85.0632706
    },
    {
        "County": "Delaware",
        "Name": "Center Township Trustee",
        "Address": "1200 E Main St, Muncie, IN 47305, United States",
        "Phone": "(765) 288-8876",
        "Website": "N/A",
        "Latitude": 40.1936556,
        "Longitude": -85.3736253,
        "Hours": [
            "Monday: 8:00 AM - 4:00 PM",
            "Tuesday: 8:00 AM - 4:00 PM",
            "Wednesday: 8:00 AM - 4:00 PM",
            "Thursday: 8:00 AM - 4:00 PM",
            "Friday: 8:00 AM - 4:00 PM",
            "Saturday: Closed",
            "Sunday: Closed"
        ]
    },
    {
        "County": "Delaware",
        "Name": "Monroe Township Trustee",
        "Address": "504 W Co Rd 600 S, Muncie, IN 47302, United States",
        "Phone": "(765) 282-2177",
        "Website": "N/A",
        "Latitude": 40.1055947,
        "Longitude": -85.39059929999999
    },
    {
        "County": "Dubois",
        "Name": "Bainbridge Township Trustee",
        "Address": "1214 W Carlisle Dr, Jasper, IN 47546, United States",
        "Phone": "(812) 482-5246",
        "Website": "N/A",
        "Latitude": 38.3988763,
        "Longitude": -86.9493538
    },
    {
        "County": "Elkhart",
        "Name": "Elkhart Twp Trustee Office",
        "Address": "106 N 5th St, Goshen, IN 46528, United States",
        "Phone": "(574) 533-2066",
        "Website": "N/A",
        "Latitude": 41.5867713,
        "Longitude": -85.8328679,
        "Hours": [
            "Monday: 9:00 AM - 4:00 PM",
            "Tuesday: Closed",
            "Wednesday: 9:00 AM - 12:00 PM",
            "Thursday: Closed",
            "Friday: 9:00 AM - 4:00 PM",
            "Saturday: Closed",
            "Sunday: Closed"
        ]
    },
    {
        "County": "Elkhart",
        "Name": "Cleveland Township Trustee",
        "Address": "52019 Co Rd 5, Elkhart, IN 46514, United States",
        "Phone": "(574) 343-2548",
        "Website": "N/A",
        "Latitude": 41.7250061,
        "Longitude": -86.0334951,
        "Hours": [
            "Monday: 9:00 AM - 4:00 PM",
            "Tuesday: Closed",
            "Wednesday: 9:00 AM - 4:00 PM",
            "Thursday: Closed",
            "Friday: 9:00 AM - 4:00 PM",
            "Saturday: Closed",
            "Sunday: Closed"
        ]
    },
    {
        "County": "Elkhart",
        "Name": "Osolo Township Trustee",
        "Address": "25600 Co Rd 4, Elkhart, IN 46514, United States",
        "Phone": "(574) 262-2175",
        "Website": "N/A",
        "Latitude": 41.7384311,
        "Longitude": -85.9603161,
        "Hours": [
            "Monday: 9:00 AM - 2:00 PM",
            "Tuesday: 9:00 AM - 2:00 PM",
            "Wednesday: Closed",
            "Thursday: 9:00 AM - 2:00 PM",
            "Friday: 9:00 AM - 12:00 PM",
            "Saturday: Closed",
            "Sunday: Closed"
        ]
    },
    {
        "County": "Elkhart",
        "Name": "Concord Township Trustee",
        "Address": "2804 Toledo Rd, Elkhart, IN 46516, United States",
        "Phone": "(574) 293-6889",
        "Website": "N/A",
        "Latitude": 41.6748027,
        "Longitude": -85.91767159999999,
        "Hours": [
            "Monday: 8:00 AM - 4:00 PM",
            "Tuesday: 8:00 AM - 4:00 PM",
            "Wednesday: Closed",
            "Thursday: 8:00 AM - 4:00 PM",
            "Friday: 8:00 AM - 4:00 PM",
            "Saturday: Closed",
            "Sunday: Closed"
        ]
    },
    {
        "County": "Elkhart",
        "Name": "Baugo Twp Trustee",
        "Address": "57955 Co Rd 3 B, Elkhart, IN 46517, United States",
        "Phone": "(574) 293-5873",
        "Website": "N/A",
        "Latitude": 41.653396,
        "Longitude": -86.0229573,
        "Hours": [
            "Monday: 9:00 AM - 2:00 PM",
            "Tuesday: Closed",
            "Wednesday: 12:00 - 4:00 PM",
            "Thursday: Closed",
            "Friday: 9:00 AM - 2:00 PM",
            "Saturday: Closed",
            "Sunday: Closed"
        ]
    },
    {
        "County": "Fayette",
        "Name": "Connersville Twp Trustee",
        "Address": "428 Water St, Connersville, IN 47331, United States",
        "Phone": "(765) 825-5213",
        "Website": "N/A",
        "Latitude": 39.6398386,
        "Longitude": -85.1369422,
        "Hours": [
            "Monday: Closed",
            "Tuesday: 9:00 AM - 4:00 PM",
            "Wednesday: Closed",
            "Thursday: 9:00 AM - 4:00 PM",
            "Friday: Closed",
            "Saturday: Closed",
            "Sunday: Closed"
        ]
    },
    {
        "County": "Fayette",
        "Name": "Harrison Twp Trustees Office",
        "Address": "522 W 30th St, Connersville, IN 47331, United States",
        "Phone": "(765) 825-2271",
        "Website": "N/A",
        "Latitude": 39.6723851,
        "Longitude": -85.1299061
    },
    {
        "County": "Floyd",
        "Name": "new albany township trustee",
        "Address": "2608 Charlestown Rd, New Albany, IN 47150, United States",
        "Phone": "(812) 948-5498",
        "Website": "N/A",
        "Latitude": 38.3148497,
        "Longitude": -85.8035895,
        "Hours": [
            "Monday: 8:00 AM - 2:00 PM",
            "Tuesday: 8:00 AM - 2:00 PM",
            "Wednesday: 8:00 AM - 2:00 PM",
            "Thursday: 8:00 AM - 2:00 PM",
            "Friday: Closed",
            "Saturday: Closed",
            "Sunday: Closed"
        ]
    },
    {
        "County": "Floyd",
        "Name": "Lafayette Township Trustee",
        "Address": "4711 Wolford Dr, Floyds Knobs, IN 47119, United States",
        "Phone": "(812) 557-3401",
        "Website": "N/A",
        "Latitude": 38.3423802,
        "Longitude": -85.8936432
    },
    {
        "County": "Fountain",
        "Name": "Fountain County Treasurer",
        "Address": "Fountain County Courthouse, 301 4th St, Covington, IN 47932, United States",
        "Phone": "(765) 793-3691",
        "Website": "N/A",
        "Latitude": 40.1370991,
        "Longitude": -87.3969426,
        "Hours": [
            "Monday: 8:00 AM - 4:00 PM",
            "Tuesday: 8:00 AM - 4:00 PM",
            "Wednesday: 8:00 AM - 4:00 PM",
            "Thursday: 8:00 AM - 4:00 PM",
            "Friday: 8:00 AM - 4:00 PM",
            "Saturday: Closed",
            "Sunday: Closed"
        ]
    },
    {
        "County": "Fulton",
        "Name": "Rochester Township Trustee",
        "Address": "126 E 7th St, Rochester, IN 46975, United States",
        "Phone": "(574) 223-3258",
        "Website": "N/A",
        "Latitude": 41.0673195,
        "Longitude": -86.2147012
    },
    {
        "County": "Gibson",
        "Name": "Trustee of Patoka Township",
        "Address": "2633 S Old, US Hwy 41, Princeton, IN 47670, United States",
        "Phone": "(812) 385-5333",
        "Website": "N/A",
        "Latitude": 38.3173599,
        "Longitude": -87.5676141,
        "Hours": [
            "Monday: 8:00 AM - 2:00 PM",
            "Tuesday: 8:00 AM - 2:00 PM",
            "Wednesday: 8:00 AM - 2:00 PM",
            "Thursday: 8:00 AM - 2:00 PM",
            "Friday: Closed",
            "Saturday: Closed",
            "Sunday: Closed"
        ]
    },
    {
        "County": "Grant",
        "Name": "Center Township Trustee",
        "Address": "405 S Washington St, Marion, IN 46953, United States",
        "Phone": "(765) 573-8069",
        "Website": "N/A",
        "Latitude": 40.557572,
        "Longitude": -85.65966619999999,
        "Hours": [
            "Monday: 9:00 AM - 4:00 PM",
            "Tuesday: 9:00 AM - 4:00 PM",
            "Wednesday: 9:00 AM - 4:00 PM",
            "Thursday: 9:00 AM - 4:00 PM",
            "Friday: 9:00 AM - 1:00 PM",
            "Saturday: Closed",
            "Sunday: Closed"
        ]
    },
    {
        "County": "Grant",
        "Name": "Mill Township Trustee",
        "Address": "2111 E Old Kokomo Rd, Marion, IN 46953, United States",
        "Phone": "(765) 674-9221",
        "Website": "N/A",
        "Latitude": 40.4922624,
        "Longitude": -85.6283265
    },
    {
        "County": "Grant",
        "Name": "Franklin Township Trustee",
        "Address": "1652 W Euclid Ave, Marion, IN 46952, United States",
        "Phone": "(765) 668-7277",
        "Website": "N/A",
        "Latitude": 40.5637149,
        "Longitude": -85.6813262
    },
    {
        "County": "Greene",
        "Name": "Stockton Township Trustee",
        "Address": "55 N Main St, Linton, IN 47441, United States",
        "Phone": "(812) 847-4208",
        "Website": "N/A",
        "Latitude": 39.034614,
        "Longitude": -87.16601
    },
    {
        "County": "Greene",
        "Name": "Center Twp Trustee",
        "Address": "11242 IN-54, Bloomfield, IN 47424, United States",
        "Phone": "(812) 825-3066",
        "Website": "N/A",
        "Latitude": 39.026198,
        "Longitude": -86.735553
    },
    {
        "County": "Hamilton",
        "Name": "Noblesville Township Trustee",
        "Address": "836 Division St., Noblesville, IN 46060, United States",
        "Phone": "(317) 773-0249",
        "Website": "N/A",
        "Latitude": 40.0424592,
        "Longitude": -86.0142297,
        "Hours": [
            "Monday: 9:00 AM - 4:00 PM",
            "Tuesday: 9:00 AM - 4:00 PM",
            "Wednesday: 9:00 AM - 4:00 PM",
            "Thursday: 9:00 AM - 4:00 PM",
            "Friday: 9:00 AM - 3:00 PM",
            "Saturday: Closed",
            "Sunday: Closed"
        ]
    },
    {
        "County": "Hamilton",
        "Name": "Wayne Township Trustee - Hamilton County",
        "Address": "18441 E Durbin Rd, Noblesville, IN 46060, United States",
        "Phone": "(317) 773-3179",
        "Website": "N/A",
        "Latitude": 40.05711120000001,
        "Longitude": -85.9104282,
        "Hours": [
            "Monday: 10:00 AM - 3:00 PM",
            "Tuesday: 10:00 AM - 3:00 PM",
            "Wednesday: 10:00 AM - 3:00 PM",
            "Thursday: 10:00 AM - 3:00 PM",
            "Friday: Closed",
            "Saturday: Closed",
            "Sunday: Closed"
        ]
    },
    {
        "County": "Hamilton",
        "Name": "Adams Township Trustee",
        "Address": "201 S Main St, Sheridan, IN 46069, United States",
        "Phone": "(317) 758-1029",
        "Website": "N/A",
        "Latitude": 40.1369031,
        "Longitude": -86.2204404,
        "Hours": [
            "Monday: 8:30 AM - 4:30 PM",
            "Tuesday: 8:30 AM - 4:00 PM",
            "Wednesday: 8:30 AM - 4:00 PM",
            "Thursday: 8:30 AM - 4:00 PM",
            "Friday: 8:30 AM - 12:00 PM",
            "Saturday: Closed",
            "Sunday: Closed"
        ]
    },
    {
        "County": "Hamilton",
        "Name": "Fall Creek Township Office",
        "Address": "11595 Brooks School Rd, Fishers, IN 46037, United States",
        "Phone": "(317) 841-3180",
        "Website": "N/A",
        "Latitude": 39.9574444,
        "Longitude": -85.94248170000002
    },
    {
        "County": "Hamilton",
        "Name": "Clay Township Trustee",
        "Address": "10701 N College Ave B, Nora, IN 46280, United States",
        "Phone": "(317) 846-2773",
        "Website": "N/A",
        "Latitude": 39.9435312,
        "Longitude": -86.1454807,
        "Hours": [
            "Monday: 8:00 AM - 3:00 PM",
            "Tuesday: 8:00 AM - 3:00 PM",
            "Wednesday: 8:00 AM - 3:00 PM",
            "Thursday: 8:00 AM - 3:00 PM",
            "Friday: 8:00 AM - 12:00 PM",
            "Saturday: Closed",
            "Sunday: Closed"
        ]
    },
    {
        "County": "Hamilton",
        "Name": "Delaware Township Trustee",
        "Address": "9090 E 131st St, Fishers, IN 46038, United States",
        "Phone": "(317) 842-8595",
        "Website": "N/A",
        "Latitude": 39.9790784,
        "Longitude": -86.0094067,
        "Hours": [
            "Monday: 8:00 AM - 3:00 PM",
            "Tuesday: 8:00 AM - 3:00 PM",
            "Wednesday: 8:00 AM - 3:00 PM",
            "Thursday: 8:00 AM - 3:00 PM",
            "Friday: 8:00 AM - 3:00 PM",
            "Saturday: Closed",
            "Sunday: Closed"
        ]
    },
    {
        "County": "Hamilton",
        "Name": "Jackson Township Trustee",
        "Address": "506 W Main St, Arcadia, IN 46030, United States",
        "Phone": "(317) 984-3826",
        "Website": "N/A",
        "Latitude": 40.17644,
        "Longitude": -86.02817499999999,
        "Hours": [
            "Monday: 8:00 - 11:00 AM",
            "Tuesday: 8:00 AM - 3:00 PM",
            "Wednesday: 8:00 - 11:00 AM",
            "Thursday: 8:00 AM - 3:00 PM",
            "Friday: 8:00 - 11:00 AM",
            "Saturday: Closed",
            "Sunday: Closed"
        ]
    },
    {
        "County": "Hancock",
        "Name": "Office of Center Township - Hancock County Trustee",
        "Address": "210 W New Rd, Greenfield, IN 46140, United States",
        "Phone": "(317) 477-1176",
        "Website": "N/A",
        "Latitude": 39.8144815,
        "Longitude": -85.7741534,
        "Hours": [
            "Monday: 9:00 AM - 12:00 PM",
            "Tuesday: 9:00 AM - 12:00 PM",
            "Wednesday: 9:00 AM - 12:00 PM",
            "Thursday: 9:00 AM - 12:00 PM",
            "Friday: 9:00 AM - 12:00 PM",
            "Saturday: Closed",
            "Sunday: Closed"
        ]
    },
    {
        "County": "Hancock",
        "Name": "Buck Creek Township Trustee",
        "Address": "5809 Airport Blvd, Greenfield, IN 46140, United States",
        "Phone": "(317) 353-3570",
        "Website": "N/A",
        "Latitude": 39.8432389,
        "Longitude": -85.9116119
    },
    {
        "County": "Harrison",
        "Name": "Harrison Township Trustee",
        "Address": "1970 IN-337, Corydon, IN 47112, United States",
        "Phone": "(812) 734-1102",
        "Website": "N/A",
        "Latitude": 38.2300341,
        "Longitude": -86.1364416
    },
    {
        "County": "Hendricks",
        "Name": "Washington Township Trustee",
        "Address": "311 Production Dr, Avon, IN 46123, United States",
        "Phone": "(317) 272-1835",
        "Website": "N/A",
        "Latitude": 39.7613139,
        "Longitude": -86.38675060000001,
        "Hours": [
            "Monday: 8:00 AM - 4:30 PM",
            "Tuesday: 8:00 AM - 4:30 PM",
            "Wednesday: 8:00 AM - 4:30 PM",
            "Thursday: 8:00 AM - 4:30 PM",
            "Friday: 8:00 AM - 4:30 PM",
            "Saturday: Closed",
            "Sunday: Closed"
        ]
    },
    {
        "County": "Hendricks",
        "Name": "Lincoln Township Trustee",
        "Address": "55 E Main St, Brownsburg, IN 46112, United States",
        "Phone": "(317) 852-8745",
        "Website": "N/A",
        "Latitude": 39.8426828,
        "Longitude": -86.3969163,
        "Hours": [
            "Monday: 8:00 AM - 12:30 PM",
            "Tuesday: Closed",
            "Wednesday: 8:00 AM - 1:00 PM",
            "Thursday: Closed",
            "Friday: 8:00 AM - 12:30 PM",
            "Saturday: Closed",
            "Sunday: Closed"
        ]
    },
    {
        "County": "Hendricks",
        "Name": "Liberty Township Trustee",
        "Address": "4945 Iowa St, Clayton, IN 46118, United States",
        "Phone": "(317) 539-7944",
        "Website": "N/A",
        "Latitude": 39.6885282,
        "Longitude": -86.52285599999999
    },
    {
        "County": "Hendricks",
        "Name": "Brown Township Hendricks County",
        "Address": "7455 E County Rd 1000 N, Brownsburg, IN 46112, United States",
        "Phone": "(317) 852-0899",
        "Website": "N/A",
        "Latitude": 39.9088151,
        "Longitude": -86.3934939,
        "Hours": [
            "Monday: Closed",
            "Tuesday: Closed",
            "Wednesday: 10:00 AM - 2:00 PM",
            "Thursday: 10:00 AM - 2:00 PM",
            "Friday: Closed",
            "Saturday: Closed",
            "Sunday: Closed"
        ]
    },
    {
        "County": "Hendricks",
        "Name": "Union Township Trustee",
        "Address": "104 Church St, Lizton, IN 46149, United States",
        "Phone": "N/A",
        "Website": "N/A",
        "Latitude": 39.8853171,
        "Longitude": -86.54631440000001
    },
    {
        "County": "Hendricks",
        "Name": "Middle Twp Trustee",
        "Address": "45 N Maple St, Pittsboro, IN 46167, United States",
        "Phone": "(317) 892-5000",
        "Website": "N/A",
        "Latitude": 39.8638676,
        "Longitude": -86.46661639999999
    },
    {
        "County": "Henry",
        "Name": "Henry Township Trustee and Community Center",
        "Address": "1201 Church St, New Castle, IN 47362, United States",
        "Phone": "(765) 529-3303",
        "Website": "N/A",
        "Latitude": 39.9296585,
        "Longitude": -85.3714572
    },
    {
        "County": "Howard",
        "Name": "Center Township Trustee",
        "Address": "213 E Jefferson St, Kokomo, IN 46901, United States",
        "Phone": "(765) 452-8259",
        "Website": "N/A",
        "Latitude": 40.49085290000001,
        "Longitude": -86.1291512,
        "Hours": [
            "Monday: 8:00 AM - 4:00 PM",
            "Tuesday: 8:00 AM - 4:00 PM",
            "Wednesday: 8:00 AM - 4:00 PM",
            "Thursday: 8:00 AM - 4:00 PM",
            "Friday: 8:00 AM - 12:00 PM",
            "Saturday: Closed",
            "Sunday: Closed"
        ]
    },
    {
        "County": "Howard",
        "Name": "Harrison Twp Trustee",
        "Address": "4057 S Webster St, Kokomo, IN 46902, United States",
        "Phone": "(765) 455-0345",
        "Website": "N/A",
        "Latitude": 40.4390939,
        "Longitude": -86.1363722,
        "Hours": [
            "Monday: 9:00 AM - 1:30 PM",
            "Tuesday: 9:00 AM - 1:30 PM",
            "Wednesday: 9:00 AM - 1:30 PM",
            "Thursday: 9:00 AM - 1:30 PM",
            "Friday: 9:00 AM - 1:30 PM",
            "Saturday: Closed",
            "Sunday: Closed"
        ]
    },
    {
        "County": "Howard",
        "Name": "Taylor Township Trustee",
        "Address": "3885 E Center Rd, Kokomo, IN 46902, United States",
        "Phone": "(765) 453-0466",
        "Website": "N/A",
        "Latitude": 40.4340194,
        "Longitude": -86.05322749999999
    },
    {
        "County": "Huntington",
        "Name": "Huntington Township",
        "Address": "1005 N Broadway St, Huntington, IN 46750, United States",
        "Phone": "(260) 356-5218",
        "Website": "N/A",
        "Latitude": 40.8893669,
        "Longitude": -85.47064619999999,
        "Hours": [
            "Monday: 9:00 AM - 2:00 PM",
            "Tuesday: 9:00 AM - 2:00 PM",
            "Wednesday: 9:00 AM - 2:00 PM",
            "Thursday: 9:00 AM - 2:00 PM",
            "Friday: Closed",
            "Saturday: Closed",
            "Sunday: Closed"
        ]
    },
    {
        "County": "Jackson",
        "Name": "Jackson Twp Trustee",
        "Address": "1407 Corporate Way Ste 240, Seymour, IN 47274, United States",
        "Phone": "(812) 271-1196",
        "Website": "N/A",
        "Latitude": 38.9482377,
        "Longitude": -85.9084018
    },
    {
        "County": "Jasper",
        "Name": "Keener Township Trustee",
        "Address": "321 15th St SE, De Motte, IN 46310, United States",
        "Phone": "(219) 987-7825",
        "Website": "N/A",
        "Latitude": 41.1873282,
        "Longitude": -87.19546989999999
    },
    {
        "County": "Jay",
        "Name": "Township of Wayne",
        "Address": "113 W Main St, Portland, IN 47371, United States",
        "Phone": "(260) 726-4607",
        "Website": "N/A",
        "Latitude": 40.4331815,
        "Longitude": -84.978448
    },
    {
        "County": "Jefferson",
        "Name": "Madison Twp Trustee",
        "Address": "504 W 2nd St # 1X, Madison, IN 47250, United States",
        "Phone": "(812) 265-3217",
        "Website": "N/A",
        "Latitude": 38.73615940000001,
        "Longitude": -85.3851711
    },
    {
        "County": "Jennings",
        "Name": "Geneva Township Trustee",
        "Address": "6815 N County Rd 575 W, Scipio, IN 47273, United States",
        "Phone": "(812) 392-2880",
        "Website": "N/A",
        "Latitude": 39.0839984,
        "Longitude": -85.7206545
    },
    {
        "County": "Jennings",
        "Name": "Lovett Trustee",
        "Address": "180 W County Rd 500 S, North Vernon, IN 47265, United States",
        "Phone": "(812) 873-6522",
        "Website": "N/A",
        "Latitude": 38.911931,
        "Longitude": -85.6150686
    },
    {
        "County": "Jennings",
        "Name": "Jennings Co-Ordinating Council",
        "Address": "203 Hoosier St, North Vernon, IN 47265, United States",
        "Phone": "(812) 346-5183",
        "Website": "N/A",
        "Latitude": 39.0078079,
        "Longitude": -85.6278075
    },
    {
        "County": "Johnson",
        "Name": "Franklin Union Needham Township Trustee",
        "Address": "20 Circle Dr, Franklin, IN 46131, United States",
        "Phone": "(317) 736-7511",
        "Website": "N/A",
        "Latitude": 39.492633,
        "Longitude": -86.061371,
        "Hours": [
            "Monday: 8:00 AM - 5:00 PM",
            "Tuesday: 8:00 AM - 5:00 PM",
            "Wednesday: 8:00 AM - 5:00 PM",
            "Thursday: 8:00 AM - 5:00 PM",
            "Friday: Closed",
            "Saturday: Closed",
            "Sunday: Closed"
        ]
    },
    {
        "County": "Johnson",
        "Name": "Pleasant Township Trustee",
        "Address": "70 N Railroad St, Whiteland, IN 46184, United States",
        "Phone": "(317) 535-7571",
        "Website": "N/A",
        "Latitude": 39.5509963,
        "Longitude": -86.0788638
    },
    {
        "County": "Johnson",
        "Name": "White River Township Trustee Office",
        "Address": "2929 S Morgantown Rd, Greenwood, IN 46143, United States",
        "Phone": "(317) 422-1143",
        "Website": "N/A",
        "Latitude": 39.5732538,
        "Longitude": -86.1963138,
        "Hours": [
            "Monday: 9:00 AM - 4:00 PM",
            "Tuesday: 9:00 AM - 4:00 PM",
            "Wednesday: 9:00 AM - 4:00 PM",
            "Thursday: 9:00 AM - 4:00 PM",
            "Friday: Closed",
            "Saturday: Closed",
            "Sunday: Closed"
        ]
    },
    {
        "County": "Johnson",
        "Name": "Needham Twp Trustee",
        "Address": "58 W Jefferson St, Franklin, IN 46131, United States",
        "Phone": "(317) 738-3778",
        "Website": "N/A",
        "Latitude": 39.48061819999999,
        "Longitude": -86.0560004
    },
    {
        "County": "Johnson",
        "Name": "Union Township Trustee",
        "Address": "1820 N Rd 575 W, Bargersville, IN 46106, United States",
        "Phone": "(317) 422-5773",
        "Website": "N/A",
        "Latitude": 39.50265,
        "Longitude": -86.21162609999999
    },
    {
        "County": "Johnson",
        "Name": "Blue River Township Trustee",
        "Address": "116 S Holland St, Edinburgh, IN 46124, United States",
        "Phone": "(812) 526-5113",
        "Website": "N/A",
        "Latitude": 39.3535013,
        "Longitude": -85.9654797
    },
    {
        "County": "Johnson",
        "Name": "Trustee Office",
        "Address": "Franklin, IN 46131, United States",
        "Phone": "N/A",
        "Website": "N/A",
        "Latitude": 39.492534,
        "Longitude": -86.061362
    },
    {
        "County": "Knox",
        "Name": "Vincennes Twp Trustee",
        "Address": "505 N 7th St, Vincennes, IN 47591, United States",
        "Phone": "(812) 882-8703",
        "Website": "N/A",
        "Latitude": 38.6786907,
        "Longitude": -87.5240953,
        "Hours": [
            "Monday: 8:00 AM - 3:45 PM",
            "Tuesday: 8:00 AM - 3:45 PM",
            "Wednesday: 8:00 AM - 3:45 PM",
            "Thursday: 8:00 AM - 3:45 PM",
            "Friday: 8:00 AM - 12:00 PM",
            "Saturday: Closed",
            "Sunday: Closed"
        ]
    },
    {
        "County": "Knox",
        "Name": "Vigo Township Trustee",
        "Address": "121 S Main St, Bicknell, IN 47512, United States",
        "Phone": "(812) 735-3955",
        "Website": "N/A",
        "Latitude": 38.7719833,
        "Longitude": -87.30589610000001
    },
    {
        "County": "Kosciusko",
        "Name": "Wayne Township Trustee",
        "Address": "649 S Buffalo St, Warsaw, IN 46580, United States",
        "Phone": "(574) 269-2079",
        "Website": "N/A",
        "Latitude": 41.2316937,
        "Longitude": -85.8563417,
        "Hours": [
            "Monday: Closed",
            "Tuesday: 9:00 AM - 4:00 PM",
            "Wednesday: Closed",
            "Thursday: 9:00 AM - 4:00 PM",
            "Friday: Closed",
            "Saturday: Closed",
            "Sunday: Closed"
        ]
    },
    {
        "County": "Kosciusko",
        "Name": "Clay Township Trustee",
        "Address": "phone # 574-566-2394, 4830 S Country Club Rd, Warsaw, IN 46580, United States",
        "Phone": "(574) 566-2394",
        "Website": "N/A",
        "Latitude": 41.16270300000001,
        "Longitude": -85.81444739999999
    },
    {
        "County": "Kosciusko",
        "Name": "Township Trustee",
        "Address": "9736 W 300 N, Etna Green, IN 46524, United States",
        "Phone": "(574) 858-2353",
        "Website": "N/A",
        "Latitude": 41.2747306,
        "Longitude": -86.0321349
    },
    {
        "County": "Kosciusko",
        "Name": "Tippecanoe Township Trustee's Office",
        "Address": "301 N Main St, North Webster, IN 46555, United States",
        "Phone": "(574) 834-1600 ext. 228",
        "Website": "N/A",
        "Latitude": 41.3280293,
        "Longitude": -85.6972937,
        "Hours": [
            "Monday: 8:30 AM - 2:30 PM",
            "Tuesday: 8:30 AM - 4:00 PM",
            "Wednesday: Closed",
            "Thursday: 8:30 AM - 2:30 PM",
            "Friday: 8:30 AM - 4:00 PM",
            "Saturday: Closed",
            "Sunday: Closed"
        ]
    },
    {
        "County": "Kosciusko",
        "Name": "Washington Twp Trustee",
        "Address": "126 N First St, Pierceton, IN 46562, United States",
        "Phone": "(574) 594-5283",
        "Website": "N/A",
        "Latitude": 41.1995507,
        "Longitude": -85.70508869999999
    },
    {
        "County": "Kosciusko",
        "Name": "Turkey Creek Township Trustee",
        "Address": "310 N Huntington St, Syracuse, IN 46567, United States",
        "Phone": "(574) 457-4175",
        "Website": "N/A",
        "Latitude": 41.424759,
        "Longitude": -85.7496506
    },
    {
        "County": "Kosciusko",
        "Name": "Lake Township Trustee",
        "Address": "11465 Peru Rd, Silver Lake, IN 46982, United States",
        "Phone": "(260) 352-2638",
        "Website": "N/A",
        "Latitude": 41.065306,
        "Longitude": -85.900083
    },
    {
        "County": "Kosciusko",
        "Name": "Tippecanoe Township Trustee\u2019s Office",
        "Address": "301 N Main St Ste 124, North Webster, IN 46555, United States",
        "Phone": "(574) 834-1600 ext. 228",
        "Website": "N/A",
        "Latitude": 41.3280293,
        "Longitude": -85.6972937,
        "Hours": [
            "Monday: 8:30 AM - 2:30 PM",
            "Tuesday: 8:30 AM - 4:00 PM",
            "Wednesday: Closed",
            "Thursday: 8:30 AM - 2:30 PM",
            "Friday: 8:30 AM - 4:00 PM",
            "Saturday: Closed",
            "Sunday: Closed"
        ]
    },
    {
        "County": "Kosciusko",
        "Name": "Harrison Township Trustee",
        "Address": "204 Harrison St, Atwood, IN 46502, United States",
        "Phone": "(574) 858-0734",
        "Website": "N/A",
        "Latitude": 41.2594654,
        "Longitude": -85.97702009999999
    },
    {
        "County": "Kosciusko",
        "Name": "Van Buren Township Trustee",
        "Address": "101 S Main St, Milford, IN 46542, United States",
        "Phone": "(574) 658-9686",
        "Website": "N/A",
        "Latitude": 41.410707,
        "Longitude": -85.8509085
    },
    {
        "County": "Kosciusko",
        "Name": "Jackson Township Trustee",
        "Address": "103 E Center St, Sidney, IN 46562, United States",
        "Phone": "(260) 839-4803",
        "Website": "N/A",
        "Latitude": 41.1052687,
        "Longitude": -85.74304479999999
    },
    {
        "County": "LaGrange",
        "Name": "Milford Township Trustee",
        "Address": "4390 S 1170 E, Stroh, IN 46789, United States",
        "Phone": "(260) 351-9103",
        "Website": "N/A",
        "Latitude": 41.5790794,
        "Longitude": -85.20068959999999
    },
    {
        "County": "LaGrange",
        "Name": "Greenfield Township Trustee",
        "Address": "5400 IN-3, Howe, IN 46746, United States",
        "Phone": "(260) 562-3041",
        "Website": "N/A",
        "Latitude": 41.7206971,
        "Longitude": -85.3115539
    },
    {
        "County": "LaGrange",
        "Name": "LaGrange Town Hall",
        "Address": "1201 N 00Ew, LaGrange, IN 46761, United States",
        "Phone": "(260) 463-3241",
        "Website": "N/A",
        "Latitude": 41.6565209,
        "Longitude": -85.4259216,
        "Hours": [
            "Monday: 8:00 AM - 4:30 PM",
            "Tuesday: 8:00 AM - 4:30 PM",
            "Wednesday: 8:00 AM - 12:00 PM",
            "Thursday: 8:00 AM - 4:30 PM",
            "Friday: 8:00 AM - 4:30 PM",
            "Saturday: Closed",
            "Sunday: Closed"
        ]
    },
    {
        "County": "Lake",
        "Name": "Center Township Trustee",
        "Address": "1450 E Joliet St, Crown Point, IN 46307, United States",
        "Phone": "(219) 663-0250",
        "Website": "N/A",
        "Latitude": 41.4121442,
        "Longitude": -87.3454118,
        "Hours": [
            "Monday: 9:00 AM - 3:00 PM",
            "Tuesday: 9:00 AM - 3:00 PM",
            "Wednesday: 9:00 AM - 3:00 PM",
            "Thursday: 9:00 AM - 3:00 PM",
            "Friday: 9:00 AM - 12:00 PM",
            "Saturday: Closed",
            "Sunday: Closed"
        ]
    },
    {
        "County": "Lake",
        "Name": "Hobart Township Trustee",
        "Address": "1421 37th Ave, Hobart, IN 46342, United States",
        "Phone": "(219) 942-0055",
        "Website": "N/A",
        "Latitude": 41.5507553,
        "Longitude": -87.2779353,
        "Hours": [
            "Monday: 8:00 AM - 4:00 PM",
            "Tuesday: 8:00 AM - 4:00 PM",
            "Wednesday: 8:00 AM - 4:00 PM",
            "Thursday: 8:00 AM - 4:00 PM",
            "Friday: 8:00 AM - 4:00 PM",
            "Saturday: Closed",
            "Sunday: Closed"
        ]
    },
    {
        "County": "Lake",
        "Name": "Hanover Township Trustee",
        "Address": "13330 Parrish Ave, Cedar Lake, IN 46303, United States",
        "Phone": "(219) 374-7443",
        "Website": "N/A",
        "Latitude": 41.3766863,
        "Longitude": -87.450844,
        "Hours": [
            "Monday: 9:00 AM - 3:00 PM",
            "Tuesday: 9:00 AM - 3:00 PM",
            "Wednesday: 9:00 AM - 3:00 PM",
            "Thursday: 9:00 AM - 3:00 PM",
            "Friday: 9:00 AM - 3:00 PM",
            "Saturday: Closed",
            "Sunday: Closed"
        ]
    },
    {
        "County": "Lake",
        "Name": "Ross Township Trustee",
        "Address": "26 W 73rd Ave, Merrillville, IN 46410, United States",
        "Phone": "(219) 769-2111",
        "Website": "N/A",
        "Latitude": 41.4865184,
        "Longitude": -87.3386983,
        "Hours": [
            "Monday: 8:00 AM - 4:00 PM",
            "Tuesday: 8:00 AM - 4:00 PM",
            "Wednesday: 8:00 AM - 4:00 PM",
            "Thursday: 8:00 AM - 4:00 PM",
            "Friday: 8:00 AM - 4:00 PM",
            "Saturday: Closed",
            "Sunday: Closed"
        ]
    },
    {
        "County": "Lake",
        "Name": "Cedar Creek Township Trustee",
        "Address": "151 N Fremont St, Lowell, IN 46356, United States",
        "Phone": "N/A",
        "Website": "N/A",
        "Latitude": 41.29273990000001,
        "Longitude": -87.41939
    },
    {
        "County": "Lake",
        "Name": "Calumet Township Trustee's Office",
        "Address": "610 Connecticut St, Gary, IN 46402, United States",
        "Phone": "(219) 880-4000",
        "Website": "N/A",
        "Latitude": 41.5998347,
        "Longitude": -87.3347948,
        "Hours": [
            "Monday: 8:00 AM - 6:00 PM",
            "Tuesday: 8:00 AM - 6:00 PM",
            "Wednesday: 8:00 AM - 6:00 PM",
            "Thursday: 8:00 AM - 6:00 PM",
            "Friday: Closed",
            "Saturday: Closed",
            "Sunday: Closed"
        ]
    },
    {
        "County": "Lake",
        "Name": "North Township Trustee Office",
        "Address": "5947 Hohman Ave, Hammond, IN 46320, United States",
        "Phone": "(219) 932-2530",
        "Website": "N/A",
        "Latitude": 41.6052151,
        "Longitude": -87.5217952,
        "Hours": [
            "Monday: 9:00 AM - 5:00 PM",
            "Tuesday: 9:00 AM - 5:00 PM",
            "Wednesday: 9:00 AM - 5:00 PM",
            "Thursday: 9:00 AM - 5:00 PM",
            "Friday: 9:00 AM - 5:00 PM",
            "Saturday: Closed",
            "Sunday: Closed"
        ]
    },
    {
        "County": "Lake",
        "Name": "North Township Trustee's Office",
        "Address": "2100 Broadway St, East Chicago, IN 46312, United States",
        "Phone": "(219) 398-2435",
        "Website": "N/A",
        "Latitude": 41.6462984,
        "Longitude": -87.4454635,
        "Hours": [
            "Monday: 9:00 AM - 5:00 PM",
            "Tuesday: 9:00 AM - 5:00 PM",
            "Wednesday: 9:00 AM - 5:00 PM",
            "Thursday: 9:00 AM - 5:00 PM",
            "Friday: 9:00 AM - 5:00 PM",
            "Saturday: Closed",
            "Sunday: Closed"
        ]
    },
    {
        "County": "Lake",
        "Name": "Calumet Township-Trustee",
        "Address": "31 E 5th Ave, Gary, IN 46402, United States",
        "Phone": "(219) 886-5243",
        "Website": "N/A",
        "Latitude": 41.6021759,
        "Longitude": -87.3369432
    },
    {
        "County": "LaPorte",
        "Name": "Center Twp Trustee, Lisa Pierzakowski",
        "Address": "1108 W State Rd 2, La Porte, IN 46350, United States",
        "Phone": "(219) 362-2736",
        "Website": "N/A",
        "Latitude": 41.600558,
        "Longitude": -86.7327377,
        "Hours": [
            "Monday: 9:00 AM - 4:00 PM",
            "Tuesday: 9:00 AM - 4:00 PM",
            "Wednesday: 9:00 AM - 5:00 PM",
            "Thursday: Closed",
            "Friday: 9:00 AM - 12:00 PM",
            "Saturday: Closed",
            "Sunday: Closed"
        ]
    },
    {
        "County": "LaPorte",
        "Name": "Kankakee Twp Trustee",
        "Address": "185 E 400 N, La Porte, IN 46350, United States",
        "Phone": "(219) 362-2391",
        "Website": "N/A",
        "Latitude": 41.6653253,
        "Longitude": -86.69634599999999
    },
    {
        "County": "LaPorte",
        "Name": "Michigan Twp Trustee",
        "Address": "2601 E Michigan Blvd, Michigan City, IN 46360, United States",
        "Phone": "(219) 874-5201",
        "Website": "N/A",
        "Latitude": 41.7076734,
        "Longitude": -86.8667047,
        "Hours": [
            "Monday: 9:00 AM - 3:00 PM",
            "Tuesday: 9:00 AM - 3:00 PM",
            "Wednesday: Closed",
            "Thursday: 9:00 AM - 3:00 PM",
            "Friday: 9:00 AM - 3:00 PM",
            "Saturday: Closed",
            "Sunday: Closed"
        ]
    },
    {
        "County": "Lawrence",
        "Name": "Marshall Township Trustee",
        "Address": "494 Old Indiana 37 N, Bedford, IN 47421, United States",
        "Phone": "(812) 278-9357",
        "Website": "N/A",
        "Latitude": 38.9249075,
        "Longitude": -86.52733909999999
    },
    {
        "County": "Lawrence",
        "Name": "Shawswick Township Trustee",
        "Address": "2955, 1212 I St #1, Bedford, IN 47421, United States",
        "Phone": "(812) 275-2511",
        "Website": "N/A",
        "Latitude": 38.865347,
        "Longitude": -86.48246499999999,
        "Hours": [
            "Monday: 8:30 AM - 4:00 PM",
            "Tuesday: 8:30 AM - 4:00 PM",
            "Wednesday: 8:30 AM - 4:00 PM",
            "Thursday: 8:30 AM - 4:00 PM",
            "Friday: 8:30 AM - 4:00 PM",
            "Saturday: Closed",
            "Sunday: Closed"
        ]
    },
    {
        "County": "Madison",
        "Name": "Township Trustee Office",
        "Address": "109 S Main St, Summitville, IN 46070, United States",
        "Phone": "(765) 536-2042",
        "Website": "N/A",
        "Latitude": 40.3373928,
        "Longitude": -85.64500120000001
    },
    {
        "County": "Madison",
        "Name": "Anderson Township Trustee Office",
        "Address": "1420 E 10th St, Anderson, IN 46012, United States",
        "Phone": "(765) 644-1267",
        "Website": "N/A",
        "Latitude": 40.1061698,
        "Longitude": -85.66141929999999,
        "Hours": [
            "Monday: 8:00 AM - 4:00 PM",
            "Tuesday: 8:00 AM - 4:00 PM",
            "Wednesday: 8:00 AM - 4:00 PM",
            "Thursday: 8:00 AM - 4:00 PM",
            "Friday: Closed",
            "Saturday: Closed",
            "Sunday: Closed"
        ]
    },
    {
        "County": "Madison",
        "Name": "Pipe Creek Twp Trustee",
        "Address": "208 S Anderson St Suite A, Elwood, IN 46036, United States",
        "Phone": "(765) 552-0871",
        "Website": "N/A",
        "Latitude": 40.275572,
        "Longitude": -85.8420122
    },
    {
        "County": "Madison",
        "Name": "Monroe Township Trustee",
        "Address": "204 E Berry St, Alexandria, IN 46001, United States",
        "Phone": "(765) 724-3634",
        "Website": "N/A",
        "Latitude": 40.2619824,
        "Longitude": -85.6729842,
        "Hours": [
            "Monday: Closed",
            "Tuesday: 9:00 AM - 12:00 PM, 1:00 - 3:00 PM",
            "Wednesday: 9:00 AM - 12:00 PM, 1:00 - 3:00 PM",
            "Thursday: 9:00 AM - 12:00 PM",
            "Friday: Closed",
            "Saturday: Closed",
            "Sunday: Closed"
        ]
    },
    {
        "County": "Marion",
        "Name": "Center Township Trustee",
        "Address": "300 E Fall Creek Pkwy N Dr, Indianapolis, IN 46205, United States",
        "Phone": "(317) 633-3610",
        "Website": "N/A",
        "Latitude": 39.80643269999999,
        "Longitude": -86.15141349999999,
        "Hours": [
            "Monday: 8:00 AM - 4:00 PM",
            "Tuesday: 8:00 AM - 7:00 PM",
            "Wednesday: 8:00 AM - 4:00 PM",
            "Thursday: 8:00 AM - 4:00 PM",
            "Friday: 8:00 AM - 4:00 PM",
            "Saturday: Closed",
            "Sunday: Closed"
        ]
    },
    {
        "County": "Marion",
        "Name": "Wayne Township Trustee",
        "Address": "5401 W Washington St, Indianapolis, IN 46241, United States",
        "Phone": "(317) 241-4191",
        "Website": "N/A",
        "Latitude": 39.751421,
        "Longitude": -86.25225189999999,
        "Hours": [
            "Monday: 8:30 AM - 4:00 PM",
            "Tuesday: 8:30 AM - 4:00 PM",
            "Wednesday: 8:30 AM - 4:00 PM",
            "Thursday: 8:30 AM - 4:00 PM",
            "Friday: 8:30 AM - 4:00 PM",
            "Saturday: Closed",
            "Sunday: Closed"
        ]
    },
    {
        "County": "Marion",
        "Name": "Franklin Twp Trustee's Office",
        "Address": "6231 S Arlington Ave, Indianapolis, IN 46237, United States",
        "Phone": "(317) 780-1700",
        "Website": "N/A",
        "Latitude": 39.677971,
        "Longitude": -86.0625032,
        "Hours": [
            "Monday: 8:00 AM - 4:00 PM",
            "Tuesday: 8:00 AM - 4:00 PM",
            "Wednesday: 8:00 AM - 4:00 PM",
            "Thursday: 8:00 AM - 4:00 PM",
            "Friday: 8:00 AM - 4:00 PM",
            "Saturday: Closed",
            "Sunday: Closed"
        ]
    },
    {
        "County": "Marion",
        "Name": "Office of the Lawrence Township Trustee",
        "Address": "4455 McCoy St #100, Lawrence, IN 46226, United States",
        "Phone": "(317) 890-0011",
        "Website": "N/A",
        "Latitude": 39.8392162,
        "Longitude": -86.0246567,
        "Hours": [
            "Monday: 8:30 AM - 4:30 PM",
            "Tuesday: 8:30 AM - 4:30 PM",
            "Wednesday: 8:30 AM - 4:30 PM",
            "Thursday: 8:30 AM - 4:30 PM",
            "Friday: 8:30 AM - 4:30 PM",
            "Saturday: Closed",
            "Sunday: Closed"
        ]
    },
    {
        "County": "Marion",
        "Name": "Pike Township Trustee",
        "Address": "5665 Lafayette Rd, Indianapolis, IN 46254, United States",
        "Phone": "(317) 291-5801",
        "Website": "N/A",
        "Latitude": 39.8545041,
        "Longitude": -86.26249500000002,
        "Hours": [
            "Monday: 8:30 AM - 4:30 PM",
            "Tuesday: 8:30 AM - 4:30 PM",
            "Wednesday: 8:30 AM - 4:30 PM",
            "Thursday: 8:30 AM - 4:30 PM",
            "Friday: 8:30 AM - 4:30 PM",
            "Saturday: Closed",
            "Sunday: Closed"
        ]
    },
    {
        "County": "Marion",
        "Name": "Decatur Township Trustee",
        "Address": "5410 S High School Rd #1/2, Indianapolis, IN 46221, United States",
        "Phone": "(317) 856-6600",
        "Website": "N/A",
        "Latitude": 39.6857916,
        "Longitude": -86.2700856,
        "Hours": [
            "Monday: 8:30 AM - 4:30 PM",
            "Tuesday: 8:30 AM - 4:30 PM",
            "Wednesday: 8:30 AM - 4:30 PM",
            "Thursday: 8:30 AM - 4:30 PM",
            "Friday: 8:30 AM - 4:30 PM",
            "Saturday: Closed",
            "Sunday: Closed"
        ]
    },
    {
        "County": "Marion",
        "Name": "Warren Township Trustee",
        "Address": "501 N Post Rd, Indianapolis, IN 46219, United States",
        "Phone": "(317) 327-8947",
        "Website": "N/A",
        "Latitude": 39.7791929,
        "Longitude": -86.0081098,
        "Hours": [
            "Monday: 8:30 AM - 4:30 PM",
            "Tuesday: 8:30 AM - 4:30 PM",
            "Wednesday: 8:30 AM - 4:30 PM",
            "Thursday: 8:30 AM - 4:30 PM",
            "Friday: 8:30 AM - 4:30 PM",
            "Saturday: Closed",
            "Sunday: Closed"
        ]
    },
    {
        "County": "Marion",
        "Name": "Perry Trustee Offices",
        "Address": "4925 Shelby St # 400, Indianapolis, IN 46227, United States",
        "Phone": "(317) 788-4815",
        "Website": "N/A",
        "Latitude": 39.69447479999999,
        "Longitude": -86.13831549999999,
        "Hours": [
            "Monday: 8:00 AM - 4:00 PM",
            "Tuesday: 8:00 AM - 4:00 PM",
            "Wednesday: 8:00 AM - 4:00 PM",
            "Thursday: 8:00 AM - 4:00 PM",
            "Friday: 8:00 AM - 4:00 PM",
            "Saturday: Closed",
            "Sunday: Closed"
        ]
    },
    {
        "County": "Marshall",
        "Name": "Walnut Township Trustee Office",
        "Address": "194 S Michigan St, Argos, IN 46501, United States",
        "Phone": "(574) 892-5500",
        "Website": "N/A",
        "Latitude": 41.2361877,
        "Longitude": -86.244884
    },
    {
        "County": "Marshall",
        "Name": "Center Township Trustee",
        "Address": "510 W Adams St #200, Plymouth, IN 46563, United States",
        "Phone": "(574) 936-3726",
        "Website": "N/A",
        "Latitude": 41.3424059,
        "Longitude": -86.314554,
        "Hours": [
            "Monday: 8:30 AM - 3:00 PM",
            "Tuesday: Closed",
            "Wednesday: 12:30 - 4:00 PM",
            "Thursday: Closed",
            "Friday: Closed",
            "Saturday: Closed",
            "Sunday: Closed"
        ]
    },
    {
        "County": "Miami",
        "Name": "Peru Township Trustee",
        "Address": "127 E Washington Ave, Peru, IN 46970, United States",
        "Phone": "(765) 473-5835",
        "Website": "N/A",
        "Latitude": 40.7637002,
        "Longitude": -86.0696269
    },
    {
        "County": "Miami",
        "Name": "Washington Township Trustee Office",
        "Address": "36 German St, Peru, IN 46970, United States",
        "Phone": "(765) 472-0170",
        "Website": "N/A",
        "Latitude": 40.74527519999999,
        "Longitude": -86.05904369999999
    },
    {
        "County": "Monroe",
        "Name": "Bloomington Township Trustee",
        "Address": "924 W 17th St Suite C, Bloomington, IN 47404, United States",
        "Phone": "(812) 336-4976",
        "Website": "N/A",
        "Latitude": 39.1792536,
        "Longitude": -86.5435801,
        "Hours": [
            "Monday: 9:00 AM - 3:00 PM",
            "Tuesday: 9:00 - 11:30 AM, 12:30 - 3:00 PM",
            "Wednesday: 9:00 AM - 3:00 PM",
            "Thursday: 9:00 AM - 3:00 PM",
            "Friday: 9:00 AM - 3:00 PM",
            "Saturday: Closed",
            "Sunday: Closed"
        ]
    },
    {
        "County": "Monroe",
        "Name": "Perry Township Trustee's Office",
        "Address": "1010 S Walnut St B, Bloomington, IN 47401, United States",
        "Phone": "(812) 336-3713",
        "Website": "N/A",
        "Latitude": 39.1546555,
        "Longitude": -86.53405099999999,
        "Hours": [
            "Monday: 9:00 AM - 3:00 PM",
            "Tuesday: 9:00 AM - 3:00 PM",
            "Wednesday: 9:00 AM - 3:00 PM",
            "Thursday: 9:00 AM - 3:00 PM",
            "Friday: 9:00 AM - 3:00 PM",
            "Saturday: Closed",
            "Sunday: Closed"
        ]
    },
    {
        "County": "Monroe",
        "Name": "Clear Creek Twp Trustee",
        "Address": "9206 S Old State Rd 37, Bloomington, IN 47403, United States",
        "Phone": "(812) 824-7225",
        "Website": "N/A",
        "Latitude": 39.01349750000001,
        "Longitude": -86.5414423
    },
    {
        "County": "Monroe",
        "Name": "Washington Township Trustee",
        "Address": "8137 N Fox Hollow Rd, Bloomington, IN 47408, United States",
        "Phone": "(812) 876-1158",
        "Website": "N/A",
        "Latitude": 39.282343,
        "Longitude": -86.51361
    },
    {
        "County": "Monroe",
        "Name": "Richland Township Trustee",
        "Address": "416 S Park St, Ellettsville, IN 47429, United States",
        "Phone": "(812) 876-2000",
        "Website": "N/A",
        "Latitude": 39.2275392,
        "Longitude": -86.6206196,
        "Hours": [
            "Monday: 8:00 AM - 3:00 PM",
            "Tuesday: 8:00 AM - 3:00 PM",
            "Wednesday: 8:00 AM - 3:00 PM",
            "Thursday: 8:00 AM - 3:00 PM",
            "Friday: 8:00 AM - 3:00 PM",
            "Saturday: Closed",
            "Sunday: Closed"
        ]
    },
    {
        "County": "Monroe",
        "Name": "Indian Creek Twp Trustee",
        "Address": "8019 Rockport Rd, Bloomington, IN 47403, United States",
        "Phone": "(812) 824-4981",
        "Website": "N/A",
        "Latitude": 39.048866,
        "Longitude": -86.60996209999999
    },
    {
        "County": "Montgomery",
        "Name": "Union Township Trustee",
        "Address": "1311 Darlington Ave, Crawfordsville, IN 47933, United States",
        "Phone": "(765) 362-0706",
        "Website": "N/A",
        "Latitude": 40.0454784,
        "Longitude": -86.8828276,
        "Hours": [
            "Monday: 8:00 AM - 12:00 PM",
            "Tuesday: 8:00 AM - 12:00 PM",
            "Wednesday: 8:00 AM - 12:00 PM",
            "Thursday: 8:00 AM - 12:00 PM",
            "Friday: 8:00 AM - 12:00 PM",
            "Saturday: Closed",
            "Sunday: Closed"
        ]
    },
    {
        "County": "Morgan",
        "Name": "Township Trustee",
        "Address": "159 W Morgan St #1, Martinsville, IN 46151, United States",
        "Phone": "(765) 342-6368",
        "Website": "N/A",
        "Latitude": 39.4277248,
        "Longitude": -86.4306101,
        "Hours": [
            "Monday: 9:00 AM - 2:00 PM",
            "Tuesday: Closed",
            "Wednesday: 9:00 AM - 2:00 PM",
            "Thursday: Closed",
            "Friday: 9:00 AM - 1:00 PM",
            "Saturday: Closed",
            "Sunday: Closed"
        ]
    },
    {
        "County": "Morgan",
        "Name": "Madison Township Trustees Office",
        "Address": "7047 E Landersdale Rd, Camby, IN 46113, United States",
        "Phone": "(317) 834-6027",
        "Website": "N/A",
        "Latitude": 39.617055,
        "Longitude": -86.29575
    },
    {
        "County": "Newton",
        "Name": "Lincoln Township Trustee",
        "Address": "4540 E 1200 N, De Motte, IN 46310, United States",
        "Phone": "(219) 345-4071",
        "Website": "N/A",
        "Latitude": 41.1744444,
        "Longitude": -87.3037227,
        "Hours": [
            "Monday: 12:00 - 5:00 PM",
            "Tuesday: 12:00 - 5:00 PM",
            "Wednesday: 12:00 - 5:00 PM",
            "Thursday: 12:00 - 5:00 PM",
            "Friday: 12:00 - 5:00 PM",
            "Saturday: Closed",
            "Sunday: Closed"
        ]
    },
    {
        "County": "Newton",
        "Name": "Lake Township Trustee",
        "Address": "2932 W 883 N, Lake Village, IN 46349, United States",
        "Phone": "(219) 992-9116",
        "Website": "N/A",
        "Latitude": 41.1279063,
        "Longitude": -87.4475598
    },
    {
        "County": "Noble",
        "Name": "Albion Twp Trustee",
        "Address": "100 W Main St, Albion, IN 46701, United States",
        "Phone": "(260) 636-6047",
        "Website": "N/A",
        "Latitude": 41.3954104,
        "Longitude": -85.42421720000002
    },
    {
        "County": "Noble",
        "Name": "Perry Township Trustee",
        "Address": "312 S Cavin St, Ligonier, IN 46767, United States",
        "Phone": "(260) 894-4717",
        "Website": "N/A",
        "Latitude": 41.4632992,
        "Longitude": -85.5877486,
        "Hours": [
            "Monday: 9:00 AM - 4:00 PM",
            "Tuesday: 9:00 AM - 4:00 PM",
            "Wednesday: Closed",
            "Thursday: 9:00 AM - 4:00 PM",
            "Friday: Closed",
            "Saturday: Closed",
            "Sunday: Closed"
        ]
    },
    {
        "County": "Noble",
        "Name": "Noble Township Noble County",
        "Address": "3784 W 300 S, Albion, IN 46701, United States",
        "Phone": "(260) 799-5709",
        "Website": "N/A",
        "Latitude": 41.3159565,
        "Longitude": -85.4930256
    },
    {
        "County": "Noble",
        "Name": "Orange Township Trustee",
        "Address": "101 Warrener Dr, Rome City, IN 46784, United States",
        "Phone": "(260) 854-2912",
        "Website": "N/A",
        "Latitude": 41.4871029,
        "Longitude": -85.37697659999999,
        "Hours": [
            "Monday: 9:00 AM - 12:00 PM, 4:00 - 7:00 PM",
            "Tuesday: 9:00 AM - 12:00 PM, 4:00 - 7:00 PM",
            "Wednesday: Closed",
            "Thursday: 9:00 AM - 12:00 PM, 4:00 - 7:00 PM",
            "Friday: Closed",
            "Saturday: Closed",
            "Sunday: Closed"
        ]
    },
    {
        "County": "Noble",
        "Name": "Allen Township Trustee",
        "Address": "134 Green Dr unit b, Avilla, IN 46710, United States",
        "Phone": "(260) 897-2472",
        "Website": "N/A",
        "Latitude": 41.3635797,
        "Longitude": -85.2205894,
        "Hours": [
            "Monday: 6:00 - 8:00 PM",
            "Tuesday: Closed",
            "Wednesday: Closed",
            "Thursday: 6:00 - 8:00 PM",
            "Friday: Closed",
            "Saturday: Closed",
            "Sunday: Closed"
        ]
    },
    {
        "County": "Ohio",
        "Name": "Ohio County Trustees (through the auditor office, please call for more information)",
        "Address": " 413 Main Street, Rising Sun, Indiana",
        "Phone": "(812) 438-2062",
        "Website": "http://ohiocountyin.gov/trustees/",
        "Latitude": "38.9503285",
        "Longitude": "-84.8565323"
    },
    {
        "County": "Orange",
        "Name": "Paoli Twp Trustee",
        "Address": "650 N Gospel St, Paoli, IN 47454, United States",
        "Phone": "(812) 723-5689",
        "Website": "N/A",
        "Latitude": 38.5640096,
        "Longitude": -86.4664045,
        "Hours": [
            "Monday: Closed",
            "Tuesday: 9:00 AM - 4:00 PM",
            "Wednesday: Closed",
            "Thursday: 9:00 AM - 12:00 PM",
            "Friday: Closed",
            "Saturday: Closed",
            "Sunday: Closed"
        ]
    },
    {
        "County": "Orange",
        "Name": "Orange County Trustee",
        "Address": "9 W Main St, Paoli, IN 47454, United States",
        "Phone": "(812) 723-3153",
        "Website": "N/A",
        "Latitude": 38.5559824,
        "Longitude": -86.4692046
    },
    {
        "County": "Owen",
        "Name": "Washington Township Trustee",
        "Address": "40 S East St, Spencer, IN 47460, United States",
        "Phone": "(812) 829-4098",
        "Website": "N/A",
        "Latitude": 39.285461,
        "Longitude": -86.75824779999999
    },
    {
        "County": "Owen",
        "Name": "Jefferson Twp Trustee",
        "Address": "14693 County Rd 375 S, Coal City, IN 47427, United States",
        "Phone": "(812) 859-4185",
        "Website": "N/A",
        "Latitude": 39.2391006,
        "Longitude": -87.0357284
    },
    {
        "County": "Parke",
        "Name": "Adams Township Trustee",
        "Address": "418 S Virginia St, Rockville, IN 47872, United States",
        "Phone": "(765) 569-5299",
        "Website": "N/A",
        "Latitude": 39.7598752,
        "Longitude": -87.2267595
    },
    {
        "County": "Parke",
        "Name": "Union Township Trustee",
        "Address": "7699 Ferndale Rd, Rockville, IN 47872, United States",
        "Phone": "(765) 344-1384",
        "Website": "N/A",
        "Latitude": 39.7172449,
        "Longitude": -87.09190029999999
    },
    {
        "County": "Parke",
        "Name": "Florida Twp Trustee",
        "Address": "242 Central St, Rosedale, IN 47874, United States",
        "Phone": "(765) 548-0448",
        "Website": "N/A",
        "Latitude": 39.6228206,
        "Longitude": -87.2867613
    },
    {
        "County": "Perry",
        "Name": "Troy Township Trustee",
        "Address": "717 Jefferson St, Tell City, IN 47586, United States",
        "Phone": "(812) 547-3001",
        "Website": "N/A",
        "Latitude": 37.9522026,
        "Longitude": -86.7702691,
        "Hours": [
            "Monday: 9:30 AM - 2:30 PM",
            "Tuesday: Closed",
            "Wednesday: 9:30 AM - 2:30 PM",
            "Thursday: 9:30 AM - 2:30 PM",
            "Friday: Closed",
            "Saturday: Closed",
            "Sunday: Closed"
        ]
    },
    {
        "County": "Pike",
        "Name": "Patoka Township Trustee",
        "Address": "411 E Porter St, Winslow, IN 47598, United States",
        "Phone": "(812) 789-2076",
        "Website": "N/A",
        "Latitude": 38.3858344,
        "Longitude": -87.2118816
    },
    {
        "County": "Pike",
        "Name": "Washington Township Trustee",
        "Address": "801 Main St, Petersburg, IN 47567, United States",
        "Phone": "(812) 354-9613",
        "Website": "N/A",
        "Latitude": 38.4916236,
        "Longitude": -87.27872029999999
    },
    {
        "County": "Porter",
        "Name": "Center Township Trustee",
        "Address": "202 Roosevelt Rd, Valparaiso, IN 46383, United States",
        "Phone": "(219) 462-0810",
        "Website": "N/A",
        "Latitude": 41.4698806,
        "Longitude": -87.0462124,
        "Hours": [
            "Monday: 8:00 - 11:30 AM",
            "Tuesday: 8:00 - 11:30 AM",
            "Wednesday: 8:00 - 11:30 AM",
            "Thursday: 8:00 - 11:30 AM",
            "Friday: Closed",
            "Saturday: Closed",
            "Sunday: Closed"
        ]
    },
    {
        "County": "Porter",
        "Name": "Porter Township Trustee's Office",
        "Address": "454 W 300 S, Valparaiso, IN 46385, United States",
        "Phone": "(219) 988-4444",
        "Website": "N/A",
        "Latitude": 41.3906757,
        "Longitude": -87.1533839,
        "Hours": [
            "Monday: 9:00 AM - 2:00 PM",
            "Tuesday: 9:00 AM - 2:00 PM",
            "Wednesday: 9:00 AM - 2:00 PM",
            "Thursday: 9:00 AM - 2:00 PM",
            "Friday: 9:00 AM - 2:00 PM",
            "Saturday: Closed",
            "Sunday: Closed"
        ]
    },
    {
        "County": "Porter",
        "Name": "Union Township Trustee of Porter County",
        "Address": "330 W US Hwy 30, Valparaiso, IN 46385, United States",
        "Phone": "(219) 759-1482",
        "Website": "N/A",
        "Latitude": 41.4679271,
        "Longitude": -87.1309493
    },
    {
        "County": "Porter",
        "Name": "Porter Township Trustee's Office",
        "Address": "595 W 350 S, Hebron, IN 46341, United States",
        "Phone": "(219) 988-4444",
        "Website": "N/A",
        "Latitude": 41.3840882,
        "Longitude": -87.18016469999999
    },
    {
        "County": "Porter",
        "Name": "Portage Township Trustee's Office",
        "Address": "3590 Willowcreek Rd Suite B, Portage, IN 46368, United States",
        "Phone": "(219) 762-1623",
        "Website": "N/A",
        "Latitude": 41.547565,
        "Longitude": -87.1844782,
        "Hours": [
            "Monday: 8:00 AM - 4:00 PM",
            "Tuesday: 8:00 AM - 4:00 PM",
            "Wednesday: 8:00 AM - 4:00 PM",
            "Thursday: 8:00 AM - 4:00 PM",
            "Friday: 8:00 AM - 12:00 PM",
            "Saturday: Closed",
            "Sunday: Closed"
        ]
    },
    {
        "County": "Porter",
        "Name": "Union Twp Trustee",
        "Address": "251 N 475 W, Valparaiso, IN 46385, United States",
        "Phone": "(219) 759-1482",
        "Website": "N/A",
        "Latitude": 41.4713626,
        "Longitude": -87.1574186,
        "Hours": [
            "Monday: 9:00 AM - 12:00 PM",
            "Tuesday: Closed",
            "Wednesday: Closed",
            "Thursday: 9:00 AM - 12:00 PM",
            "Friday: Closed",
            "Saturday: Closed",
            "Sunday: Closed"
        ]
    },
    {
        "County": "Posey",
        "Name": "Black Township Trustee Office",
        "Address": "5773 Industrial Rd, Mt Vernon, IN 47620, United States",
        "Phone": "(812) 838-3851",
        "Website": "N/A",
        "Latitude": 37.9543517,
        "Longitude": -87.8974736,
        "Hours": [
            "Monday: 8:00 AM - 3:30 PM",
            "Tuesday: 8:00 AM - 3:30 PM",
            "Wednesday: 8:00 AM - 3:30 PM",
            "Thursday: 8:00 AM - 3:30 PM",
            "Friday: Closed",
            "Saturday: Closed",
            "Sunday: Closed"
        ]
    },
    {
        "County": "Posey",
        "Name": "Township Trustee",
        "Address": "157 E Fletchall St, Poseyville, IN 47633, United States",
        "Phone": "(812) 874-3330",
        "Website": "N/A",
        "Latitude": 38.1708264,
        "Longitude": -87.7777618
    },
    {
        "County": "Putnam",
        "Name": "Greencastle Twp Trustee",
        "Address": "620 Tennessee St, Greencastle, IN 46135, United States",
        "Phone": "(765) 653-5918",
        "Website": "N/A",
        "Latitude": 39.6370711,
        "Longitude": -86.85346390000001,
        "Hours": [
            "Monday: 8:00 AM - 11:55 PM",
            "Tuesday: 12:00 AM - 11:59 PM",
            "Wednesday: 12:00 AM - 11:59 PM",
            "Thursday: 12:00 AM - 11:59 PM",
            "Friday: 12:00 AM - 11:59 PM",
            "Saturday: Closed",
            "Sunday: Closed"
        ]
    },
    {
        "County": "Putnam",
        "Name": "Jefferson Twp Trustee",
        "Address": "6548 S County Rd 750 E, Greencastle, IN 46135, United States",
        "Phone": "(765) 526-2511",
        "Website": "N/A",
        "Latitude": 39.5647578,
        "Longitude": -86.7159679
    },
    {
        "County": "Putnam",
        "Name": "Cloverdale Twp Trustee's",
        "Address": "3 W Fulton St, Cloverdale, IN 46120, United States",
        "Phone": "(765) 795-3174",
        "Website": "N/A",
        "Latitude": 39.5139471,
        "Longitude": -86.7955238
    },
    {
        "County": "Putnam",
        "Name": "Monroe Twp Trustee",
        "Address": "312 S Green St, Bainbridge, IN 46105, United States",
        "Phone": "(765) 522-2939",
        "Website": "N/A",
        "Latitude": 39.7596952,
        "Longitude": -86.81019069999999
    },
    {
        "County": "Randolph",
        "Name": "White River Twp Trustee",
        "Address": "123 E 4th St, Winchester, IN 47394, United States",
        "Phone": "(765) 584-3575",
        "Website": "N/A",
        "Latitude": 40.1784925,
        "Longitude": -84.9803713
    },
    {
        "County": "Ripley",
        "Name": "Franklin Twp Trustee of Ripley County IN",
        "Address": "S Main St, Milan, IN 47031, United States",
        "Phone": "(812) 621-8486",
        "Website": "N/A",
        "Latitude": 39.121141,
        "Longitude": -85.1312263,
        "Hours": [
            "Monday: Closed",
            "Tuesday: 10:00 AM - 5:00 PM",
            "Wednesday: 10:00 AM - 5:00 PM",
            "Thursday: 10:00 AM - 5:00 PM",
            "Friday: 12:00 - 5:00 PM",
            "Saturday: Closed",
            "Sunday: Closed"
        ]
    },
    {
        "County": "Ripley",
        "Name": "Johnson Township Trustee",
        "Address": "1015 S Main St, Versailles, IN 47042, United States",
        "Phone": "(812) 689-7080",
        "Website": "N/A",
        "Latitude": 39.0615899,
        "Longitude": -85.25239289999999
    },
    {
        "County": "Ripley",
        "Name": "Johnson Township Trustee",
        "Address": "631 W Tanglewood Rd, Versailles, IN 47042, United States",
        "Phone": "(812) 689-7080",
        "Website": "N/A",
        "Latitude": 39.0599959,
        "Longitude": -85.2726034
    },
    {
        "County": "Ripley",
        "Name": "Brown Trustee",
        "Address": "Cross Plains, IN 47017, United States",
        "Phone": "(812) 667-2143",
        "Website": "N/A",
        "Latitude": 38.9413607,
        "Longitude": -85.1997667
    },
    {
        "County": "Rush",
        "Name": "Rushville Township Trustee",
        "Address": "215 N Washington St, Rushville, IN 46173, United States",
        "Phone": "(765) 932-3458",
        "Website": "N/A",
        "Latitude": 39.6090767,
        "Longitude": -85.4538371
    },
    {
        "County": "St. Joseph",
        "Name": "Centre Twp Trustee",
        "Address": "19971 Kern Rd, South Bend, IN 46614, United States",
        "Phone": "(574) 291-7766",
        "Website": "N/A",
        "Latitude": 41.6086079,
        "Longitude": -86.25299559999999
    },
    {
        "County": "St. Joseph",
        "Name": "Portage Twp Trustee",
        "Address": "340 Columbia St, South Bend, IN 46601, United States",
        "Phone": "(574) 233-2127",
        "Website": "N/A",
        "Latitude": 41.6732356,
        "Longitude": -86.24511749999999,
        "Hours": [
            "Monday: 8:00 AM - 4:30 PM",
            "Tuesday: 8:00 AM - 4:30 PM",
            "Wednesday: 8:00 AM - 4:30 PM",
            "Thursday: 8:00 AM - 4:30 PM",
            "Friday: 8:00 AM - 12:00 PM",
            "Saturday: Closed",
            "Sunday: Closed"
        ]
    },
    {
        "County": "St. Joseph",
        "Name": "Greene Twp Trustee",
        "Address": "61500 Poppy Rd, South Bend, IN 46614, United States",
        "Phone": "(574) 289-9942",
        "Website": "N/A",
        "Latitude": 41.5973459,
        "Longitude": -86.36009299999999
    },
    {
        "County": "St. Joseph",
        "Name": "PENN Township Trustees Office",
        "Address": "210 E Russ St, Mishawaka, IN 46545, United States",
        "Phone": "(574) 256-6213",
        "Website": "N/A",
        "Latitude": 41.679818,
        "Longitude": -86.1793221
    },
    {
        "County": "St. Joseph",
        "Name": "Union Township Trustee",
        "Address": "507 S Michigan St, Lakeville, IN 46536, United States",
        "Phone": "(574) 784-3110",
        "Website": "N/A",
        "Latitude": 41.5199956,
        "Longitude": -86.27554339999999
    },
    {
        "County": "St. Joseph",
        "Name": "Clay Twp Trustee",
        "Address": "18355 Auten Rd, South Bend, IN 46637, United States",
        "Phone": "(574) 277-4452",
        "Website": "N/A",
        "Latitude": 41.7456213,
        "Longitude": -86.2240813
    },
    {
        "County": "St. Joseph",
        "Name": "Harris Twp Trustee",
        "Address": "13981 IN-23, Granger, IN 46530, United States",
        "Phone": "(574) 272-2371",
        "Website": "N/A",
        "Latitude": 41.7437529,
        "Longitude": -86.1392089
    },
    {
        "County": "St. Joseph",
        "Name": "Penn Twp Trustee",
        "Address": "219 Lincolnway W, Mishawaka, IN 46544, United States",
        "Phone": "(574) 256-6213",
        "Website": "N/A",
        "Latitude": 41.6606868,
        "Longitude": -86.18289829999999
    },
    {
        "County": "St. Joseph",
        "Name": "Olive Twp Trustee",
        "Address": "102 S Arch St, New Carlisle, IN 46552, United States",
        "Phone": "(574) 654-3231",
        "Website": "N/A",
        "Latitude": 41.70627289999999,
        "Longitude": -86.507571
    },
    {
        "County": "St. Joseph",
        "Name": "Clay Township Trustee & Poor Relief - General Assistance",
        "Address": "18355 Auten Rd, South Bend, IN 46637, United States",
        "Phone": "(574) 272-0955",
        "Website": "N/A",
        "Latitude": 41.7455495,
        "Longitude": -86.22407799999999
    },
    {
        "County": "St. Joseph",
        "Name": "Lincoln Twp Trustee",
        "Address": "506 Washington St, Walkerton, IN 46574, United States",
        "Phone": "(574) 910-2239",
        "Website": "N/A",
        "Latitude": 41.4648283,
        "Longitude": -86.4891779,
        "Hours": [
            "Monday: Closed",
            "Tuesday: 10:00 AM - 2:00 PM",
            "Wednesday: Closed",
            "Thursday: 10:00 AM - 2:00 PM",
            "Friday: Closed",
            "Saturday: Closed",
            "Sunday: Closed"
        ]
    },
    {
        "County": "St. Joseph",
        "Name": "Portage Twp Poor Relief",
        "Address": "133 N William St, South Bend, IN 46601, United States",
        "Phone": "(574) 233-2126",
        "Website": "N/A",
        "Latitude": 41.6773139,
        "Longitude": -86.25626489999999
    },
    {
        "County": "Scott",
        "Name": "Vienna Township Trustee",
        "Address": "820 W Vest St, Scottsburg, IN 47170, United States",
        "Phone": "(812) 752-2280",
        "Website": "N/A",
        "Latitude": 38.6877085,
        "Longitude": -85.77939459999999,
        "Hours": [
            "Monday: Closed",
            "Tuesday: 8:30 AM - 12:30 PM",
            "Wednesday: Closed",
            "Thursday: 8:30 AM - 12:30 PM",
            "Friday: Closed",
            "Saturday: Closed",
            "Sunday: Closed"
        ]
    },
    {
        "County": "Scott",
        "Name": "Vienna Twp Trustee",
        "Address": "574 W Moonglo Rd, Scottsburg, IN 47170, United States",
        "Phone": "(812) 752-2280",
        "Website": "N/A",
        "Latitude": 38.7077459,
        "Longitude": -85.7862358
    },
    {
        "County": "Scott",
        "Name": "Jennings Twp Trustee",
        "Address": "195 W Main St, Austin, IN 47102, United States",
        "Phone": "(812) 794-3009",
        "Website": "N/A",
        "Latitude": 38.7412839,
        "Longitude": -85.80819,
        "Hours": [
            "Monday: 5:00 - 6:00 PM",
            "Tuesday: 5:00 - 6:00 PM",
            "Wednesday: 5:00 - 6:00 PM",
            "Thursday: 10:00 PM - 12:00 AM",
            "Friday: 10:00 AM - 3:00 PM, 5:00 - 6:00 PM",
            "Saturday: Closed",
            "Sunday: Closed"
        ]
    },
    {
        "County": "Shelby",
        "Name": "Shelby Twp Trustee",
        "Address": "4730 S 250 E, Shelbyville, IN 46176, United States",
        "Phone": "(317) 392-8968",
        "Website": "N/A",
        "Latitude": 39.45714299999999,
        "Longitude": -85.7315439
    },
    {
        "County": "Shelby",
        "Name": "Addison Township Trustee",
        "Address": "210 Columbia Ave, Shelbyville, IN 46176, United States",
        "Phone": "(317) 398-6896",
        "Website": "N/A",
        "Latitude": 39.519627,
        "Longitude": -85.77442750000002,
        "Hours": [
            "Monday: 9:00 AM - 2:00 PM",
            "Tuesday: 9:00 AM - 2:00 PM",
            "Wednesday: 9:00 AM - 2:00 PM",
            "Thursday: 9:00 AM - 2:00 PM",
            "Friday: 9:00 AM - 2:00 PM",
            "Saturday: Closed",
            "Sunday: Closed"
        ]
    },
    {
        "County": "Shelby",
        "Name": "Shelby Twp Trustee",
        "Address": "2572 E 500 S, Waldron, IN 46182, United States",
        "Phone": "(765) 525-6834",
        "Website": "N/A",
        "Latitude": 39.455189,
        "Longitude": -85.72891299999999
    },
    {
        "County": "Shelby",
        "Name": "Washington Township Trustee",
        "Address": "8025 S 250 W, Shelbyville, IN 46176, United States",
        "Phone": "(812) 587-5607",
        "Website": "N/A",
        "Latitude": 39.4080208,
        "Longitude": -85.8269936
    },
    {
        "County": "Shelby",
        "Name": "Liberty Township Trustees Office",
        "Address": "7678 E 300 S, Waldron, IN 46182, United States",
        "Phone": "(765) 525-6771",
        "Website": "N/A",
        "Latitude": 39.484445,
        "Longitude": -85.6380609
    },
    {
        "County": "Spencer",
        "Name": "Spencer County Ohio Township trustees office",
        "Address": "963 N County Rd 275 W, Rockport, IN 47635, United States",
        "Phone": "(812) 649-2735",
        "Website": "N/A",
        "Latitude": 37.9006943,
        "Longitude": -87.1037547,
        "Hours": [
            "Monday: 8:00 AM - 4:00 PM",
            "Tuesday: 8:00 AM - 4:00 PM",
            "Wednesday: 8:00 AM - 4:00 PM",
            "Thursday: 8:00 AM - 4:00 PM",
            "Friday: 8:00 AM - 4:00 PM",
            "Saturday: Closed",
            "Sunday: Closed"
        ]
    },
    {
        "County": "Spencer",
        "Name": "Huff Township Trustee Office",
        "Address": "10601 N County Rd 1200 E, Evanston, IN 47531, United States",
        "Phone": "(812) 529-8610",
        "Website": "N/A",
        "Latitude": 38.0397155,
        "Longitude": -86.8299636
    },
    {
        "County": "Starke",
        "Name": "California Township Trustee",
        "Address": "6809 S Shewski Rd, Knox, IN 46534, United States",
        "Phone": "(574) 772-3635",
        "Website": "N/A",
        "Latitude": 41.2037475,
        "Longitude": -86.5972034
    },
    {
        "County": "Starke",
        "Name": "Center Township Trustee",
        "Address": "505 Delamatyr St, Knox, IN 46534, United States",
        "Phone": "(574) 772-7646",
        "Website": "N/A",
        "Latitude": 41.2921507,
        "Longitude": -86.6293206
    },
    {
        "County": "Steuben",
        "Name": "Pleasant Township Trustee",
        "Address": "2510 N 200 W, Angola, IN 46703, United States",
        "Phone": "(260) 833-6898",
        "Website": "N/A",
        "Latitude": 41.6792574,
        "Longitude": -85.0281679,
        "Hours": [
            "Monday: 10:00 AM - 4:00 PM",
            "Tuesday: Closed",
            "Wednesday: 10:00 AM - 4:00 PM",
            "Thursday: Closed",
            "Friday: 10:00 AM - 4:00 PM",
            "Saturday: Closed",
            "Sunday: Closed"
        ]
    },
    {
        "County": "Steuben",
        "Name": "Fremont Township Trustee",
        "Address": "4360 E Peachy Rd, Fremont, IN 46737, United States",
        "Phone": "(260) 495-9656",
        "Website": "N/A",
        "Latitude": 41.7092792,
        "Longitude": -84.91070839999999
    },
    {
        "County": "Steuben",
        "Name": "Scott Township Trustee",
        "Address": "5950 US-20, Angola, IN 46703, United States",
        "Phone": "(260) 665-5447",
        "Website": "N/A",
        "Latitude": 41.631285,
        "Longitude": -84.879475
    },
    {
        "County": "Steuben",
        "Name": "York Twp Trustee",
        "Address": "7810 E Metz Rd, Angola, IN 46703, United States",
        "Phone": "(260) 665-2806",
        "Website": "N/A",
        "Latitude": 41.618212,
        "Longitude": -84.84228800000001
    },
    {
        "County": "Steuben",
        "Name": "Steuben County",
        "Address": "Steuben County, IN, USA",
        "Phone": "N/A",
        "Website": "N/A",
        "Latitude": 41.6115471,
        "Longitude": -84.981754
    },
    {
        "County": "Steuben",
        "Name": "Otsego Township Trustee",
        "Address": "6545 S 300 E, Hamilton, IN 46742, United States",
        "Phone": "(260) 488-3376",
        "Website": "N/A",
        "Latitude": 41.5498066,
        "Longitude": -84.93481659999999
    },
    {
        "County": "Sullivan",
        "Name": "Hamilton Twp Trustee",
        "Address": "315 S Court St, Sullivan, IN 47882, United States",
        "Phone": "(812) 268-6622",
        "Website": "N/A",
        "Latitude": 39.0914272,
        "Longitude": -87.4083323,
        "Hours": [
            "Monday: 11:15 AM - 12:45 PM",
            "Tuesday: 11:15 AM - 12:45 PM",
            "Wednesday: 11:15 AM - 12:45 PM",
            "Thursday: 11:15 AM - 12:45 PM",
            "Friday: 11:15 AM - 12:45 PM",
            "Saturday: Closed",
            "Sunday: Closed"
        ]
    },
    {
        "County": "Switzerland",
        "Name": "Jefferson Township Trustee",
        "Address": "105 W Pike St # B, Vevay, IN 47043, United States",
        "Phone": "(812) 427-9111",
        "Website": "N/A",
        "Latitude": 38.7480459,
        "Longitude": -85.0684701
    },
    {
        "County": "Switzerland",
        "Name": "Craig Twp Trustee",
        "Address": "100 E Main St, Vevay, IN 47043, United States",
        "Phone": "(812) 427-9600",
        "Website": "N/A",
        "Latitude": 38.74785660000001,
        "Longitude": -85.06717940000001
    },
    {
        "County": "Tippecanoe",
        "Name": "Fairfield Township Trustee",
        "Address": "718 Wabash Ave, Lafayette, IN 47905, United States",
        "Phone": "(765) 742-7476",
        "Website": "N/A",
        "Latitude": 40.4111578,
        "Longitude": -86.89855879999999,
        "Hours": [
            "Monday: 8:00 AM - 4:30 PM",
            "Tuesday: 8:00 AM - 4:30 PM",
            "Wednesday: 8:00 AM - 4:30 PM",
            "Thursday: 11:00 AM - 6:00 PM",
            "Friday: 8:00 AM - 12:30 PM",
            "Saturday: Closed",
            "Sunday: Closed"
        ]
    },
    {
        "County": "Tippecanoe",
        "Name": "Wea Township Trustee",
        "Address": "2004 Wea School Rd, Lafayette, IN 47909, United States",
        "Phone": "(765) 474-9621",
        "Website": "N/A",
        "Latitude": 40.3391964,
        "Longitude": -86.860541,
        "Hours": [
            "Monday: 8:30 AM - 12:30 PM",
            "Tuesday: 8:30 AM - 12:30 PM",
            "Wednesday: 8:30 AM - 12:30 PM",
            "Thursday: 8:30 AM - 12:30 PM",
            "Friday: Closed",
            "Saturday: Closed",
            "Sunday: Closed"
        ]
    },
    {
        "County": "Tippecanoe",
        "Name": "Wabash Township Trustee",
        "Address": "2899 Klondike Rd, West Lafayette, IN 47906, United States",
        "Phone": "(765) 497-3100",
        "Website": "N/A",
        "Latitude": 40.4593447,
        "Longitude": -86.9611916,
        "Hours": [
            "Monday: 9:00 AM - 1:00 PM",
            "Tuesday: 9:00 AM - 1:00 PM, 2:00 - 5:00 PM",
            "Wednesday: 9:00 AM - 1:00 PM, 2:00 - 5:00 PM",
            "Thursday: 9:00 AM - 1:00 PM, 2:00 - 5:00 PM",
            "Friday: 9:00 AM - 1:00 PM, 2:00 - 5:00 PM",
            "Saturday: Closed",
            "Sunday: Closed"
        ]
    },
    {
        "County": "Tippecanoe",
        "Name": "Union Township Trustee",
        "Address": "2450 W 450 S, Lafayette, IN 47909, United States",
        "Phone": "(765) 474-0727",
        "Website": "N/A",
        "Latitude": 40.35250389999999,
        "Longitude": -86.9510631
    },
    {
        "County": "Tippecanoe",
        "Name": "Wayne Township Trustee",
        "Address": "4949 IN-25, West Point, IN 47992, United States",
        "Phone": "(765) 572-2794",
        "Website": "N/A",
        "Latitude": 40.3452652,
        "Longitude": -87.04467849999999
    },
    {
        "County": "Tipton",
        "Name": "Cicero Township Trustee, Amber McLearran",
        "Address": "750 Development Dr, Tipton, IN 46072, United States",
        "Phone": "(765) 675-4506",
        "Website": "N/A",
        "Latitude": 40.2932942,
        "Longitude": -86.0508778,
        "Hours": [
            "Monday: 8:00 - 11:00 AM",
            "Tuesday: 8:00 - 11:00 AM",
            "Wednesday: 8:00 - 11:00 AM",
            "Thursday: 8:00 - 11:00 AM",
            "Friday: Closed",
            "Saturday: Closed",
            "Sunday: Closed"
        ]
    },
    {
        "County": "Tipton",
        "Name": "Liberty Township Trustee",
        "Address": "304 E 600 N, Sharpsville, IN 46068, United States",
        "Phone": "(765) 963-2886",
        "Website": "N/A",
        "Latitude": 40.3916486,
        "Longitude": -86.00698729999999
    },
    {
        "County": "Vanderburgh",
        "Name": "Center Township Trustee",
        "Address": "2900 N First Ave, Evansville, IN 47710, United States",
        "Phone": "(812) 435-5502",
        "Website": "N/A",
        "Latitude": 38.0054455,
        "Longitude": -87.57461909999999,
        "Hours": [
            "Monday: 8:00 AM - 12:00 PM, 1:00 - 3:00 PM",
            "Tuesday: 8:00 AM - 12:00 PM, 1:00 - 3:00 PM",
            "Wednesday: 8:00 AM - 12:00 PM, 1:00 - 3:00 PM",
            "Thursday: 8:00 AM - 12:00 PM, 1:00 - 3:00 PM",
            "Friday: 8:00 AM - 12:00 PM, 1:00 - 3:00 PM",
            "Saturday: Closed",
            "Sunday: Closed"
        ]
    },
    {
        "County": "Vanderburgh",
        "Name": "Perry Township Trustee",
        "Address": "5201 Middle Mt Vernon Rd, Evansville, IN 47712, United States",
        "Phone": "(812) 425-8460",
        "Website": "N/A",
        "Latitude": 37.9656361,
        "Longitude": -87.6388183,
        "Hours": [
            "Monday: 8:00 AM - 4:00 PM",
            "Tuesday: 8:00 AM - 4:00 PM",
            "Wednesday: 8:00 AM - 4:00 PM",
            "Thursday: 8:00 AM - 4:00 PM",
            "Friday: 8:00 AM - 4:00 PM",
            "Saturday: Closed",
            "Sunday: Closed"
        ]
    },
    {
        "County": "Vanderburgh",
        "Name": "Knight Township Trustee",
        "Address": "1116 N Weinbach Ave, Evansville, IN 47711, United States",
        "Phone": "(812) 477-1596",
        "Website": "N/A",
        "Latitude": 37.9877918,
        "Longitude": -87.52978159999999,
        "Hours": [
            "Monday: 8:00 AM - 12:00 PM, 1:00 - 4:00 PM",
            "Tuesday: 8:00 AM - 12:00 PM, 1:00 - 4:00 PM",
            "Wednesday: 8:00 AM - 12:00 PM, 1:00 - 4:00 PM",
            "Thursday: 8:00 AM - 12:00 PM, 1:00 - 4:00 PM",
            "Friday: 8:00 AM - 12:00 PM, 1:00 - 4:00 PM",
            "Saturday: Closed",
            "Sunday: Closed"
        ]
    },
    {
        "County": "Vanderburgh",
        "Name": "German Township Trustee",
        "Address": "8400 St Wendel Rd Suite B, Evansville, IN 47720, United States",
        "Phone": "(812) 454-6137",
        "Website": "N/A",
        "Latitude": 38.0565059,
        "Longitude": -87.6424291
    },
    {
        "County": "Vanderburgh",
        "Name": "Pigeon Twp Trustee",
        "Address": "907 SE 8th St, Evansville, IN 47713, United States",
        "Phone": "(812) 435-5388",
        "Website": "N/A",
        "Latitude": 37.9644143,
        "Longitude": -87.5627402,
        "Hours": [
            "Monday: 8:00 AM - 4:00 PM",
            "Tuesday: 8:00 AM - 4:00 PM",
            "Wednesday: 8:00 AM - 4:00 PM",
            "Thursday: 8:00 AM - 4:00 PM",
            "Friday: 8:00 AM - 4:00 PM",
            "Saturday: Closed",
            "Sunday: Closed"
        ]
    },
    {
        "County": "Vanderburgh",
        "Name": "Scott Township of Vanderburgh",
        "Address": "1135 Hoing Rd, Darmstadt, IN 47725, United States",
        "Phone": "(812) 297-0749",
        "Website": "N/A",
        "Latitude": 38.0943799,
        "Longitude": -87.5770653
    },
    {
        "County": "Vermillion",
        "Name": "Clinton Twp Trustee",
        "Address": "170 Bunsen St, Universal, IN 47884, United States",
        "Phone": "(765) 832-6258",
        "Website": "N/A",
        "Latitude": 39.621278,
        "Longitude": -87.45191369999999
    },
    {
        "County": "Vermillion",
        "Name": "Helt Twp Trustee's Office",
        "Address": "193 N Maple St, Dana, IN 47847, United States",
        "Phone": "(765) 665-3692",
        "Website": "N/A",
        "Latitude": 39.8056589,
        "Longitude": -87.495014
    },
    {
        "County": "Vigo",
        "Name": "Harrison Township Trustee's",
        "Address": "721 Elm St, Terre Haute, IN 47807, United States",
        "Phone": "(812) 232-5052",
        "Website": "N/A",
        "Latitude": 39.4762973,
        "Longitude": -87.4061894,
        "Hours": [
            "Monday: 8:00 AM - 3:00 PM",
            "Tuesday: 8:00 AM - 3:00 PM",
            "Wednesday: 8:00 AM - 3:00 PM",
            "Thursday: 8:00 AM - 3:00 PM",
            "Friday: 8:00 AM - 3:00 PM",
            "Saturday: Closed",
            "Sunday: Closed"
        ]
    },
    {
        "County": "Vigo",
        "Name": "Honey Creek Township Trustee",
        "Address": "6553 S Carlisle St, Terre Haute, IN 47802, United States",
        "Phone": "(812) 235-1012",
        "Website": "N/A",
        "Latitude": 39.3874648,
        "Longitude": -87.397739,
        "Hours": [
            "Monday: 8:00 AM - 12:00 PM",
            "Tuesday: 8:00 AM - 12:00 PM",
            "Wednesday: 8:00 AM - 12:00 PM",
            "Thursday: 8:00 AM - 12:00 PM",
            "Friday: 8:00 AM - 12:00 PM",
            "Saturday: Closed",
            "Sunday: Closed"
        ]
    },
    {
        "County": "Vigo",
        "Name": "Sugar Creek Twp Trustee",
        "Address": "21 N 7th St, West Terre Haute, IN 47885, United States",
        "Phone": "(812) 533-1250",
        "Website": "N/A",
        "Latitude": 39.4654629,
        "Longitude": -87.4509138,
        "Hours": [
            "Monday: 9:00 AM - 4:00 PM",
            "Tuesday: 9:00 AM - 4:00 PM",
            "Wednesday: 9:00 AM - 4:00 PM",
            "Thursday: 9:00 AM - 4:00 PM",
            "Friday: 9:00 AM - 4:00 PM",
            "Saturday: Closed",
            "Sunday: Closed"
        ]
    },
    {
        "County": "Wabash",
        "Name": "Noble Twp Trustee",
        "Address": "4181 S 150 W, Wabash, IN 46992, United States",
        "Phone": "(260) 563-6526",
        "Website": "N/A",
        "Latitude": 40.7650777,
        "Longitude": -85.8189842,
        "Hours": [
            "Monday: 8:30 AM - 3:30 PM",
            "Tuesday: Closed",
            "Wednesday: 8:30 AM - 12:00 PM",
            "Thursday: 8:30 AM - 12:00 PM",
            "Friday: Closed",
            "Saturday: Closed",
            "Sunday: Closed"
        ]
    },
    {
        "County": "Wabash",
        "Name": "Paw Paw Township Trustee",
        "Address": "6382 W 300 N, Wabash, IN 46992, United States",
        "Phone": "(765) 833-7888",
        "Website": "N/A",
        "Latitude": 40.8678351,
        "Longitude": -85.91197629999999
    },
    {
        "County": "Warrick",
        "Name": "Ohio Township Trustee",
        "Address": "3433 Libbert Rd, Newburgh, IN 47630, United States",
        "Phone": "(812) 853-8835",
        "Website": "N/A",
        "Latitude": 37.9848909,
        "Longitude": -87.4145704,
        "Hours": [
            "Monday: 9:00 AM - 4:00 PM",
            "Tuesday: 9:00 AM - 4:00 PM",
            "Wednesday: 9:00 AM - 4:00 PM",
            "Thursday: 9:00 AM - 12:00 PM",
            "Friday: Closed",
            "Saturday: Closed",
            "Sunday: Closed"
        ]
    },
    {
        "County": "Warrick",
        "Name": "Boon Township Trustee",
        "Address": "107 W Locust St # 115, Boonville, IN 47601, United States",
        "Phone": "(812) 897-3540",
        "Website": "N/A",
        "Latitude": 38.0494773,
        "Longitude": -87.2747017,
        "Hours": [
            "Monday: Closed",
            "Tuesday: 8:00 AM - 12:00 PM",
            "Wednesday: 8:00 AM - 12:00 PM",
            "Thursday: 8:00 AM - 1:00 PM",
            "Friday: Closed",
            "Saturday: Closed",
            "Sunday: Closed"
        ]
    },
    {
        "County": "Warrick",
        "Name": "Anderson Township Trustee",
        "Address": "6200 S Yankeetown Rd, Boonville, IN 47630, United States",
        "Phone": "(812) 853-5541",
        "Website": "N/A",
        "Latitude": 37.943609,
        "Longitude": -87.28942099999999,
        "Hours": [
            "Monday: 1:00 - 4:00 PM",
            "Tuesday: 1:00 - 4:00 PM",
            "Wednesday: 1:00 - 4:00 PM",
            "Thursday: 1:00 - 4:00 PM",
            "Friday: 1:00 - 3:00 PM",
            "Saturday: Closed",
            "Sunday: Closed"
        ]
    },
    {
        "County": "Washington",
        "Name": "Washington Twp Trustee",
        "Address": "1201 E Hackberry St, Salem, IN 47167, United States",
        "Phone": "(812) 883-1315",
        "Website": "N/A",
        "Latitude": 38.6129703,
        "Longitude": -86.08796439999999
    },
    {
        "County": "Washington",
        "Name": "Franklin Township Trustee",
        "Address": "7957 E New Philadelphia Rd, Salem, IN 47167, United States",
        "Phone": "(812) 883-4746",
        "Website": "N/A",
        "Latitude": 38.6268761,
        "Longitude": -85.961708
    },
    {
        "County": "Wayne",
        "Name": "Wayne Twp Trustee",
        "Address": "401 E Main St, Richmond, IN 47374, United States",
        "Phone": "(765) 973-9392",
        "Website": "N/A",
        "Latitude": 39.8282283,
        "Longitude": -84.8955433,
        "Hours": [
            "Monday: 8:00 AM - 12:00 PM, 1:00 - 4:00 PM",
            "Tuesday: 8:00 AM - 12:00 PM, 1:00 - 4:00 PM",
            "Wednesday: 8:00 AM - 12:00 PM, 1:00 - 4:00 PM",
            "Thursday: 8:00 AM - 12:00 PM, 1:00 - 4:00 PM",
            "Friday: 8:00 AM - 12:00 PM, 1:00 - 4:00 PM",
            "Saturday: Closed",
            "Sunday: Closed"
        ]
    },
    {
        "County": "Wells",
        "Name": "Wells County Trustee",
        "Address": "223 W Washington St, Bluffton, IN 46714, United States",
        "Phone": "(260) 824-6402",
        "Website": "N/A",
        "Latitude": 40.7389455,
        "Longitude": -85.17354209999999,
        "Hours": [
            "Monday: 8:00 AM - 2:00 PM",
            "Tuesday: Closed",
            "Wednesday: 8:00 AM - 12:00 PM",
            "Thursday: 8:00 AM - 12:00 PM",
            "Friday: Closed",
            "Saturday: Closed",
            "Sunday: Closed"
        ]
    },
    {
        "County": "White",
        "Name": "Union Twp Trustee",
        "Address": "519 N Main St, Monticello, IN 47960, United States",
        "Phone": "(574) 583-6823",
        "Website": "N/A",
        "Latitude": 40.7508065,
        "Longitude": -86.7616242,
        "Hours": [
            "Monday: Closed",
            "Tuesday: 9:00 AM - 3:00 PM",
            "Wednesday: 6:40 - 8:10 PM",
            "Thursday: Closed",
            "Friday: 9:00 AM - 3:00 PM",
            "Saturday: Closed",
            "Sunday: Closed"
        ]
    },
    {
        "County": "White",
        "Name": "Liberty Township Trustee",
        "Address": "6072 IN-16, Monticello, IN 47960, United States",
        "Phone": "(574) 278-7267",
        "Website": "N/A",
        "Latitude": 40.88254999999999,
        "Longitude": -86.754081,
        "Hours": [
            "Monday: Closed",
            "Tuesday: 9:00 AM - 2:00 PM",
            "Wednesday: Closed",
            "Thursday: 9:00 AM - 2:00 PM",
            "Friday: Closed",
            "Saturday: Closed",
            "Sunday: Closed"
        ]
    },
    {
        "County": "Whitley",
        "Name": "Smith Township Trustee",
        "Address": "3977 NW Carlin Ct, Churubusco, IN 46723, United States",
        "Phone": "(260) 693-3266",
        "Website": "N/A",
        "Latitude": 41.2219646,
        "Longitude": -85.319227
    },
    {
        "County": "Whitley",
        "Name": "South Whitley Town Clerk",
        "Address": "118 E Front St, South Whitley, IN 46787, United States",
        "Phone": "(260) 723-5312",
        "Website": "N/A",
        "Latitude": 41.0844724,
        "Longitude": -85.62669199999999,
        "Hours": [
            "Monday: 7:30 AM - 4:00 PM",
            "Tuesday: 7:30 AM - 4:00 PM",
            "Wednesday: 7:30 AM - 4:00 PM",
            "Thursday: 7:30 AM - 4:00 PM",
            "Friday: 7:30 AM - 4:00 PM",
            "Saturday: Closed",
            "Sunday: Closed"
        ]
    }
]
